Name,Address,Location,Price,Cuisine,Longitude,Latitude,Url,Award,Description,Years,Current
Bridge Street Prawn Noodle,"533 Lebuh Pantai, George Town, 10300, Malaysia","George Town, Malaysia",$,Noodles,100.33906,5.41509,https://guide.michelin.com/en/pulau-pinang/my-george-town/restaurant/bridge-street-prawn-noodle,Bib Gourmand,,2022,0
Bridge Street Prawn Noodle,,,,,100.333995,5.4117853,,,,2023–2026,1
Duck Blood Curry Mee,"223B Jalan Burma, George Town, 10050, Malaysia","George Town, Malaysia",$,Noodles,100.3273692,5.4191353,https://guide.michelin.com/en/pulau-pinang/my-george-town/restaurant/duck-blood-curry-mee,Bib Gourmand,,2022,0
Duck Blood Curry Mee,,,,,100.3209241,5.423869,,,,2023–2026,1
Moh Teng Pheow Nyonya Koay,,,,,100.3353623,5.4193028,,,,2022–2026,1
Ivy's Nyonya Cuisine,"58 Jalan Chow Thye, George Town, 10050, Malaysia","George Town, Malaysia",$$,Peranakan,100.3208021,5.4251958,https://guide.michelin.com/en/pulau-pinang/my-george-town/restaurant/ivy-s-nyonya-cuisine,Bib Gourmand,"This simple restaurant has been run by a married couple for over 15 years; Ivy helms the kitchen while her husband waits the tables. Besides à la carte, consider ordering from the sharing set menus th",2022–2023,0
Ivy's Nyonya Cuisine,,,,,100.3276506,5.419764,,,,2024–2026,1
Theeni Pandarams,"82A Lebuh Penang, George Town, 10200, Malaysia","George Town, Malaysia",$,Indian,100.3402131,5.417368,https://guide.michelin.com/en/pulau-pinang/my-george-town/restaurant/theeni-pandarams,Bib Gourmand,In a heritage circa 1940s building stands this tiny gem selling biriyani on banana leaf. This space used to be a Chinese clinic and that slice of history is vividly retained in the décor. The name mea,"2022–2023, 2025",0
Wan Dao Tou Assam Laksa,,,,,100.3031369,5.4336771,,,,2022–2026,1
De. Wan 1958,"Level 2-2, The LINC KL, 360 Jalan Tun Razak, Taman U Thant, Kuala Lumpur, 50400, Malaysia","Kuala Lumpur, Malaysia",$$$,Malaysian,101.7208803,3.1595059,https://guide.michelin.com/en/kuala-lumpur-region/kuala-lumpur/restaurant/de-wan-1958,Bib Gourmand,"Sunny and cheerful like the local celebrity Chef Wan, the room is inviting and bustling. Similarly, the food is guaranteed to lift your spirits with big tropical flavours. Whet your appetite with pome",2022–2024,0
Congkak (Bukit Bintang),,,,,101.7101568,3.1479298,,,,2022–2026,1
Nam Heong Chicken Rice,"56 Jalan Sultan, Kuala Lumpur City Centre, Kuala Lumpur, 50000, Malaysia","Kuala Lumpur, Malaysia",$,Malaysian,101.6985081,3.1436885,https://guide.michelin.com/en/kuala-lumpur-region/kuala-lumpur/restaurant/nam-heong-chicken-rice,Bib Gourmand,"Since 1938, this household name has been hugely popular among locals for its famous Hainanese chicken rice. Now, it has three branches in Malaysia. Two kinds of chicken are offered – the pricier “vegg",2022–2024,0
Sardaarji,,,,,100.341149,5.4170929,,,,2022–2026,1
Neighbourwood,"3427 Jalan Kulim, Taman Bukit Mas, Bukit Mertajam, Seberang Perai, 14000, Malaysia","Seberang Perai, Malaysia",$$,European Contemporary,100.46348,5.35391,https://guide.michelin.com/en/pulau-pinang/seberang-perai/restaurant/neighbourwood,Bib Gourmand,,2022,0
Neighbourwood,,,,,100.47592,5.3520265,,,,2023–2026,1
Wong Mei Kee,,,,,101.7110243,3.139235,,,,2022–2026,1
Nasi Ayam Hainan Chee Meng (Jalan Kelang Lama),,,,,101.675224,3.0953734,,,,2022–2026,1
Dancing fish,"Lot T120, T121 & T122, 3F, Bangsar Shopping Centre, 285 Jalan Maarof, Bangsar, Kuala Lumpur, 59000, Malaysia","Kuala Lumpur, Malaysia",$$,"Malaysian, Indian",101.6748133,3.1278271,https://guide.michelin.com/en/kuala-lumpur-region/kuala-lumpur/restaurant/dancing-fish,Bib Gourmand,,2022,0
Dancing Fish,,,,,101.6671335,3.1430703,,,,2023–2026,1
Ah Hei Bak Kut Teh,,,,,101.7144029,3.1444195,,,,2022–2026,1
Teksen,,,,,100.3359853,5.4174271,,,,2022–2026,1
Taman Bukit Curry Mee,,,,,100.4595148,5.3548014,,,,2022–2026,1
Anak Baba,"159 Jalan Sultan Abdul Samad, Brickfields, Kuala Lumpur, 50470, Malaysia","Kuala Lumpur, Malaysia",$,"Malaysian, Peranakan",101.6902178,3.1329104,https://guide.michelin.com/en/kuala-lumpur-region/kuala-lumpur/restaurant/anak-baba,Bib Gourmand,"Since 2018, this cosy little gem tucked inside the Little India has been serving authentic Southern Peranakan cuisine that melds Indo-Malay flavours with Chinese influences. The must-try nasi lemak wi",2022–2024,0
Heun Kee Claypot Chicken Rice (Pudu),"59 Jalan Yew, Pudu, Kuala Lumpur, 55100, Malaysia","Kuala Lumpur, Malaysia",$$,Cantonese,101.71623,3.13285,https://guide.michelin.com/en/kuala-lumpur-region/kuala-lumpur/restaurant/heun-kee-claypot-chicken-rice-pudu,Bib Gourmand,"Set in an old but spruce dining area not far from Pudu wet markets, Heun Kee has been a hit with the locals since it opened in 1985. It’s one of the few remaining venues where you can taste authentic ",2022–2025,0
Tho Yuen,"92 Lebuh Campbell, George Town, 10100, Malaysia","George Town, Malaysia",$$,Cantonese,100.333816,5.4180149,https://guide.michelin.com/en/pulau-pinang/my-george-town/restaurant/tho-yuen,Bib Gourmand,The history of this teahouse spans eight decades but the décor and the tableware haven’t changed much – it’s always reassuring to see the tea set with the image of a rooster. Cantonese dim sum are mad,2022–2025,0
Penang Road Famous Laksa,,,,,100.33113,5.41663,,,,2022–2026,1
Hai Kah Lang,"44 Jalan Kaskas 2, Taman Cheras, Kuala Lumpur, 56100, Malaysia","Kuala Lumpur, Malaysia",$,Seafood,101.74155,3.10071,https://guide.michelin.com/en/kuala-lumpur-region/kuala-lumpur/restaurant/hai-kah-lang,Bib Gourmand,The owner of this joint also runs a seafood stall on the opposite side of the street. Rest assured only the freshest catch (mostly from northern Borneo) can make it to the table. To sample what it has,2022–2024,0
Ming Qing Charcoal Duck Egg Char Koay Teow,"29 Jalan Betek, off Jalan Sungai Rambai, Bukit Mertajam, Seberang Perai, 14000, Malaysia","Seberang Perai, Malaysia",$,Noodles,100.45285,5.36109,https://guide.michelin.com/en/pulau-pinang/seberang-perai/restaurant/ming-qing-charcoal-duck-egg-char-koay-teow,Bib Gourmand,"This shop celebrated its 20th anniversary in 2022 and moved to this address. Here, as indicated in its name, koay teow is stir-fried with duck egg over charcoal fire that imparts exceptional wok hei. ",2022–2024,0
Thara,,,,,100.3344135,5.4127473,,,,2022–2026,1
Thara,"Abi Bakr As Siddiq Branch Road, An Narjis, Riyadh, 13327, Saudi Arabia","Riyadh, Saudi Arabia",$$,Saudi Cuisine,46.6602803,24.8311051,https://guide.michelin.com/en/riyadh-province/riyadh_2555317/restaurant/thara-1241362,Selected Restaurants,"Fairly modern on the outside, but on the inside, the decor replicates classic Najdi architecture. Enter through heavy wooden doors, walk past sand blown walls before sitting down to enjoy a modern app",2025,0
Sao Nam,,,,,101.7075277,3.1458668,,,,2022–2026,1
Hing Kee Bakuteh (Jalan Kepong),"121 Jalan Kepong, Taman Usahawan, Kuala Lumpur, 52100, Malaysia","Kuala Lumpur, Malaysia",$,Malaysian,101.6373436,3.2139094,https://guide.michelin.com/en/kuala-lumpur-region/kuala-lumpur/restaurant/hing-kee-bakuteh-jalan-kepong,Bib Gourmand,"Just as bak kut teh is Malaysia's iconic dish and soul food, this restaurant also has a place in the hearts of locals. It’s particularly popular for lunch. The bak kut teh soup has a characteristic mi",2022–2024,0
Communal Table by Gēn,,,,,100.3303836,5.4109995,,,,2022–2026,1
Green House Prawn Mee & Loh Mee,"223 Jalan Burma, George Town, 10050, Malaysia","George Town, Malaysia",$,Street Food,100.3273692,5.4191353,https://guide.michelin.com/en/pulau-pinang/my-george-town/restaurant/green-house-prawn-mee-loh-mee,Bib Gourmand,This stall has attracted a loyal fanbase for over 30 years. Their signature Hokkien prawn mee and loh mee are best enjoyed with additional toppings like crispy roast pork or fish balls. Their prawn so,2022–2024,0
Rasa Rasa,,,,,100.3406223,5.4140577,,,,2022–2026,1
Aliyaa,,,,,101.6538194,3.149361,,,,2022–2026,1
Restoran Pik Wah,"Lot 352, Seksyen 56, Stadium Chinwoo, Jalan Hang Jebat, Kuala Lumpur, 50150, Malaysia","Kuala Lumpur, Malaysia",$$,Cantonese,101.6993948,3.1414257,https://guide.michelin.com/en/kuala-lumpur-region/kuala-lumpur/restaurant/restoran-pik-wah,Bib Gourmand,"Tucked away from busy traffic, this restaurant could be hard to find, but your efforts will be rewarded with some of the most authentic Chinese food you can get in town. Apart from familiar staples av",2022–2025,0
Lai Fong Lala Noodles,"99 Jalan Sultan, Kuala Lumpur City Centre, Kuala Lumpur, 50000, Malaysia","Kuala Lumpur, Malaysia",$,Noodles,101.6987484,3.1446078,https://guide.michelin.com/en/kuala-lumpur-region/kuala-lumpur/restaurant/lai-fong-lala-noodles,Bib Gourmand,"What began as a street stall 10 years ago that shot to local fame now occupies two shop floors on the street corner. Red lanterns adorn the ceilings, and large photos cover the walls like wallpaper. C",2022–2023,0
Iva New Balkan Cuisine,,,,,20.4610962,44.8197396,,,,2022–2026,1
Hilda and Jesse,,,,,-122.41101,37.80009,,,,2022–2026,1
Pijja Palace,"2711 Sunset Blvd., Los Angeles, 90026, USA","Los Angeles, USA",$$,"Fusion, Indian",-118.2703816,34.0807208,https://guide.michelin.com/en/california/us-los-angeles/restaurant/pijja-palace,Bib Gourmand,"“Indian Sports Bar” is not a phrase you hear often, if at all, and so it’s no surprise that this quirky hotspot at the base of a Comfort Inn defies labels. True to its name, large flatscreen TVs showi",2022–2025,0
Good Good Culture Club,,,,,-122.4229362,37.7617533,,,,2022–2026,1
Phở 79,,,,,-117.9556132,33.7527059,,,,2022–2026,1
Luscious Dumplings,,,,,-118.0185111,34.1319451,,,,2022–2026,1
Trestle,,,,,-122.40457,37.796303,,,,2022–2026,1
Meals by Genet,"1053 S. Fairfax Ave., Los Angeles, 90019, United States","Los Angeles, United States",$$,Ethiopian,-118.3646751,34.0567097,https://guide.michelin.com/en/california/us-los-angeles/restaurant/meals-by-genet,Bib Gourmand,"This specialty spot calls “Little Ethiopia” home, a bustling little strip filled with restaurants, coffee shops and thrift stores. The no-frills exterior and ambiguous name don’t suggest much, but onc","2022, 2025",0
LaoXi Noodle House,,,,,-118.01802,34.10907,,,,2022–2026,1
Father’s Office,"3229 Helms Ave., Los Angeles, 90034, USA","Los Angeles, USA",$$,Gastropub,-118.38468,34.03052,https://guide.michelin.com/en/california/us-los-angeles/restaurant/father%E2%80%99s-office,Bib Gourmand,"This may appear to be a counter-service, first-come first-serve sort of joint for grabbing a bite, but Chef Sang Yoon has turned this—and the humble burger—into so much more. Made with dry-aged beef, ",2022–2025,0
Dai Ho,,,,,-118.06928,34.105415,,,,2022–2026,1
Kettner Exchange,"2001 Kettner Blvd., San Diego, 92101, USA","San Diego, USA",$$,"Contemporary, American Contemporary",-117.1697261,32.7253114,https://guide.michelin.com/en/california/us-san-diego/restaurant/kettner-exchange,Bib Gourmand,"Hip, laid-back and a model of design, this indoor-outdoor space is at once many things. Inside, relax with a creative cocktail and bowl of lemon-Dijon popcorn while contemplating the entryway’s reflec",2022–2025,0
Anchor Oyster Bar,,,,,-122.43468,37.75986,,,,2022–2026,1
Pizzeria Bianco,"1320 E. 7th St., Los Angeles, CA, 90021, USA","Los Angeles, CA, USA",$$,"Pizza, Italian-American",-118.240532,34.0363497,https://guide.michelin.com/en/california/us-los-angeles/restaurant/pizzeria-bianco,Bib Gourmand,Those who think Los Angeles can't compete with New York when it comes to pizza obviously haven't been to Pizzeria Bianco. There is a reason long lines snake through ROW DTLA and queue up at the takeou,2022–2025,0
La Azteca,"4538 E. Cesar E. Chavez Ave., Los Angeles, 90022, USA","Los Angeles, USA",$,Mexican,-118.1683741,34.0404163,https://guide.michelin.com/en/california/us-los-angeles/restaurant/la-azteca,Bib Gourmand,La Azteca is an easy restaurant to find. Just look for the line of people snaking out of its front door. This modest counter-service operation has been serving hefty burritos from East LA for many yea,2022–2025,0
Pine & Crane,,,,,-118.2772213,34.0904961,,,,2022–2026,1
Chengdu Taste,,,,,-118.13248,34.078,,,,2022–2026,1
Sama Sama Kitchen,,,,,-119.7045301,34.4236674,,,,2022–2026,1
CHAAK Kitchen,,,,,-117.8237414,33.7440783,,,,2022–2026,1
A16,,,,,-122.4421573,37.7999626,,,,2022–2026,1
Izakaya Rintaro,,,,,-122.415115,37.76858,,,,2022–2026,1
Adana Restaurant,,,,,-118.29869,34.173664,,,,2022–2026,1
Millennium,"5912 College Ave., Oakland, 94618, USA","Oakland, USA",$$,Vegan,-122.252075,37.847427,https://guide.michelin.com/en/california/oakland/restaurant/millennium,Bib Gourmand,"After more than 20 years in San Francisco, this vegan paradise relocated to Oakland, where it’s continuing to put out some of the most unique, delicious plant-based cuisine in the country. This rustic",2022–2025,0
Sea Harbour,,,,,-118.0733,34.07984,,,,2022–2026,1
Gabbi’s Mexican Kitchen,"141 S. Glassell St., Orange, CA, 92866, USA","Orange, CA, USA",$$,"Mexican, Regional Cuisine",-117.853004,33.78689,https://guide.michelin.com/en/california/us-orange/restaurant/gabbi%E2%80%99s-mexican-kitchen,Selected Restaurants,"The cooks here understand the essence of regional Mexican cuisine, so trust in their skills and do not be disillusioned by the menu line that reads ""substitutions are graciously declined.” Many of the",2022–2025,0
Yue Huang,,,,,-121.5040297,38.6380533,,,,2022–2026,1
Pausa,,,,,-122.3220038,37.5645894,,,,2022–2026,1
Stockhome,,,,,-122.6427194,38.2333616,,,,2022–2026,1
China Village,"1335 Solano Ave., Albany, CA, 94706, USA","Albany, CA, USA",$,"Chinese, Sichuan",-122.291214,37.89083,https://guide.michelin.com/en/california/albany/restaurant/china-village,Bib Gourmand,"It takes a village to feed a big group, and this laid-back spot is a favorite with families. A stylish makeover featured a sleek front bar, contemporary chandeliers and dramatic Chinese art, but one l",2022–2025,0
Ramen Gaijin,,,,,-122.8236124,38.4023896,,,,2022–2026,1
All Day Baby,"3200 Sunset Blvd., Los Angeles, 90026, USA","Los Angeles, USA",$$$$,American,-118.275056,34.0854403,https://guide.michelin.com/en/california/us-los-angeles/restaurant/all-day-baby,Selected Restaurants,"On a sun-soaked corner of Sunset Boulevard, find one of the city’s most compelling reasons to wake up early. Anybody can throw together a breakfast sandwich, but few compare to the one at All Day Baby","2022–2023, 2025",0
Ipoh Kopitiam,,,,,-118.1230992,34.0780108,,,,2022–2026,1
Rocio's Mexican Kitchen,,,,,-118.15646,33.960003,,,,2022–2026,1
Tūmbi,"115 Santa Monica Blvd., Santa Monica, CA, 90401, USA","Santa Monica, CA, USA",$$,"Indian, Contemporary",-118.4976517,34.014547,https://guide.michelin.com/en/california/santa-monica/restaurant/tumbi,Selected Restaurants,"Just a block from the bustle of the Santa Monica Promenade, Tumbi feels worlds away, offering Indian cooking in an industrial-chic setting. All of their proteins benefit from being prepared in a clay ",2022–2025,0
Luna Mexican Kitchen,,,,,-121.91513,37.33398,,,,2022–2026,1
Del Popolo,"855 Bush St., San Francisco, CA, 94108, USA","San Francisco, CA, USA",$$,"Pizza, Californian",-122.41141,37.789772,https://guide.michelin.com/en/california/san-francisco/restaurant/del-popolo,Bib Gourmand,"If you’ve got eyes for pies, you’ll want to make a beeline to this chic and simple Italian hot spot. The open space is centered around a big, blazing oven and crowds arrive early to score every last n",2022–2025,0
Jon & Vinny’s,,,,,-118.3612687,34.0786428,,,,2022–2026,1
Union,,,,,-118.14981,34.1468,,,,2022–2026,1
Union,,,,,-87.6975894,41.9219995,,,,2024–2026,1
Union,,,,,-79.4195261,43.6457996,,,,2024–2026,1
Union,"Vieux Village de Montalbert, Aime, 73210, France","Aime, France",$$$$,"Modern Cuisine, Traditional Cuisine",6.634536,45.5344798,https://guide.michelin.com/en/auvergne-rhone-alpes/aime/restaurant/union1000115,Selected Restaurants,"This is the Union of British chef Phil Howard (The Square then Elystan Street in London) and Martin Cuchet, a French friend who is mad about the mountains. From December to April, they serve delighted",2024–2025,0
Sichuan Impression,"1900 W. Valley Blvd., Alhambra, 91803, USA","Alhambra, USA",$$,"Chinese, Sichuan",-118.14449,34.077282,https://guide.michelin.com/en/california/alhambra/restaurant/sichuan-impression,Bib Gourmand,,2022,0
Sichuan Impression,,,,,-118.1300283,34.093939,,,,2023–2026,1
Mesa Verde,"1919 Cliff Dr., Santa Barbara, 93109, United States","Santa Barbara, United States",$$,"Vegan, Mexican",-119.7224482,34.4015115,https://guide.michelin.com/en/california/santa-barbara/restaurant/mesa-verde,Bib Gourmand,"Don’t let the less-than-swanky location fool you into thinking that this is anything less than an excellent vegan restaurant. Besides, once inside it feels more like a house with a lovely garden terra","2022, 2025",0
Maccheroni Republic,,,,,-118.248726,34.050137,,,,2022–2026,1
Pizzeria Mozza,,,,,-118.3387599,34.0830906,,,,2022–2026,1
Tacos Oscar,,,,,-122.2602429,37.8286404,,,,2022–2026,1
Village Sake,,,,,-122.58903,37.986614,,,,2022–2026,1
Pig in a Pickle,"341 Corte Madera Town Centre, Corte Madera, CA, 94925, USA","Corte Madera, CA, USA",$$,Barbecue,-122.51801,37.92731,https://guide.michelin.com/en/california/corte-madera/restaurant/pig-in-a-pickle,Bib Gourmand,"Don’t be fooled by its suburban location, as this is some of the best barbecue in the Bay Area. Chef/owner Damon Stainbrook takes his sourcing seriously, as evidenced by the chalkboard outlining where",2022–2025,0
Outerlands,,,,,-122.5050059,37.7604361,,,,2022–2026,1
Kismet,,,,,-118.2907005,34.1002978,,,,2022–2026,1
Okane,,,,,-122.403015,37.770634,,,,2022–2026,1
Flavors from Afar,"1046 S. Fairfax Ave., Los Angeles, 90019, USA","Los Angeles, USA",$$,International,-118.364391,34.0567917,https://guide.michelin.com/en/california/us-los-angeles/restaurant/flavors-from-afar,Bib Gourmand,"A kitchen on a mission, Flavors from Afar works with refugees, asylum seekers and immigrants to highlight recipes from their native countries. Eritrean, Lebanese, Navajo, Guatemalan, Haitian – the rot",2022–2023,0
Flavors from Afar,"5652 Hollywood Blvd., Los Angeles, CA, 90028, USA","Los Angeles, CA, USA",$$,International,-118.313252,34.101489,https://guide.michelin.com/en/california/us-los-angeles/restaurant/flavors-from-afar,Bib Gourmand,"A kitchen on a mission, Flavors from Afar works with refugees, asylum seekers and immigrants to highlight recipes from their native countries. Eritrean, Lebanese, Navajo, Guatemalan, Haitian – the rot",2024–2025,0
Hiro Nori Craft Ramen,"2222 Michelson Dr., Ste. 234, Irvine, 92612, USA","Irvine, USA",$$,"Japanese, Ramen",-117.85588,33.676674,https://guide.michelin.com/en/california/us-irvine/restaurant/hiro-nori-ramen,Bib Gourmand,"This eatery is located in a quiet complex, just steps away from an office park-dense area of Irvine. The diminutive gray interior is accented with wood slats, a vertical garden and plate-glass windows",2022–2023,0
Tsubaki,,,,,-118.2515256,34.0728147,,,,2022–2026,1
Saffy's,,,,,-118.2951512,34.0954746,,,,2022–2026,1
LOLA 55,,,,,-117.1530704,32.7138053,,,,2022–2026,1
Caboco,"1850 Industrial St., Los Angeles, 90021, USA","Los Angeles, USA",$$,"Brazilian, Regional Cuisine",-118.2326404,34.0359191,https://guide.michelin.com/en/california/us-los-angeles/restaurant/caboco,Bib Gourmand,"At Caboco, Chefs Rodrigo Oliveira and Victor Vasconcellos bring both modern and authentic Brazilian fare to their adopted home of Los Angeles. This airy, industrial-chic space welcomes guests with a w","2022, 2025",0
Coni'Seafood,,,,,-118.33494,33.930923,,,,2022–2026,1
Comal,,,,,-122.26835,37.871647,,,,2022–2026,1
Comal,,,,,-109.8077004,22.9477912,,,,2024–2026,1
Comal,,,,,-73.992456,40.719017,,,,2025–2026,1
Ippuku,,,,,-122.26734,37.87022,,,,2022–2026,1
The Bywater,"532 N. Santa Cruz Ave., Los Gatos, CA, 95030, USA","Los Gatos, CA, USA",$$,"Southern, Creole",-121.979004,37.232773,https://guide.michelin.com/en/california/los-gatos/restaurant/the-bywater,Bib Gourmand,Chef/owner David Kinch writes a love letter to the city where he first learned to cook) at this New Orleans-inspired restaurant that feels a bit like a weekend party in the Big Easy. With its zinc bar,2022–2025,0
New Dumpling,,,,,-122.3030479,37.9019319,,,,2022–2026,1
Playa,,,,,-122.54743,37.9065919,,,,2022–2026,1
Corazon Cocina,,,,,-119.7070638,34.4235974,,,,2022–2026,1
Morning Glory,,,,,-117.1681432,32.7231471,,,,2022–2026,1
Ciccia Osteria,,,,,-117.1388338,32.6974548,,,,2022–2026,1
Yank Sing,,,,,-122.39265,37.79186,,,,2022–2026,1
1601 Bar & Kitchen,"1601 Howard St., San Francisco, 94103, United States","San Francisco, United States",$$$$,"Sri Lankan, Contemporary",-122.4169036,37.7716945,https://guide.michelin.com/en/california/san-francisco/restaurant/1601-bar-kitchen,Bib Gourmand,"Sri Lankan flavors infuse the dishes at this quiet winner, which also employs Western ingredients to arrive at its very own delicious concoctions. For a more extensive exploration of this island natio","2022, 2025",0
Baran's 2239,"502 Pacific Coast Hwy., Hermosa Beach, 90254, United States","Hermosa Beach, United States",$$,Californian,-118.391235,33.85868,https://guide.michelin.com/en/california/hermosa-beach/restaurant/baran-s-2239,Bib Gourmand,"This lovely little bistro is tucked into an unassuming mall a few blocks from the beach, giving it that ideal neighborhood feel and easy seaside vibe. Natural wood and serene colors run the length of ","2022–2023, 2025",0
Sushi Ran,,,,,-122.48576,37.8587,,,,2022–2026,1
Wood Tavern,,,,,-122.25265,37.85076,,,,2022–2026,1
Badmaash,"108 W. 2nd St., Ste. 104, Los Angeles, CA, 90012, USA","Los Angeles, CA, USA",$$,"Indian, Gastropub",-118.24476,34.05115,https://guide.michelin.com/en/california/us-los-angeles/restaurant/badmaash,Selected Restaurants,"Now boasting two locations, this Indian gastropub helmed by a father and his two sons is as popular as ever, and with good reason. The skilled kitchen delivers each dish with flavor and fun, employing",2022–2025,0
Jitlada,"5233 1/2 W. Sunset Blvd., Los Angeles, CA, 90027, USA","Los Angeles, CA, USA",$$,Thai,-118.3041058,34.0985581,https://guide.michelin.com/en/california/us-los-angeles/restaurant/jitlada,Selected Restaurants,"You’ll find Jitlada in a well-worn strip mall, but its loyal following is a testament to the lingering reputation of this long-standing Southern Thai institution. The setting even has a touch of Holly",2022–2025,0
iTalico,"341 California Ave., Palo Alto, 94306, USA","Palo Alto, USA",$$,"Italian, Regional Cuisine",-122.1443652,37.4269959,https://guide.michelin.com/en/california/palo-alto/restaurant/italico,Bib Gourmand,"Hungry for something that is bound to be utterly satisfying? Make a beeline for this Palo Alto charmer, as it knows how to make one feel coddled without having to hand over your wallet. The menu here ",2022–2025,0
Fishwives,"88 N. Fair Oaks Ave., Pasadena, 91103, United States","Pasadena, United States",$$$$,Seafood,-118.1504096,34.1471318,https://guide.michelin.com/en/california/pasadena/restaurant/fishwives,Bib Gourmand,"In stark contrast to Old Pasadena’s commercialized shopping district sits this simple but alluring seafood bar. Inspired by New England cooking, diners can easily make a meal out of the raw menu alone","2022–2023, 2025",0
MAMA Oakland,,,,,-122.2542995,37.8090021,,,,2022–2026,1
Bettina,,,,,-119.6521334,34.4226378,,,,2022–2026,1
Burritos La Palma,"5120 N. Peck Rd., El Monte, 91732, United States","El Monte, United States",$$$$,Mexican,-118.01197,34.095875,https://guide.michelin.com/en/california/el-monte/restaurant/burritos-la-palma,Bib Gourmand,"If the word “burrito” conjures up images of hearty, newborn baby-sized bundles of deliciousness, this kitchen is here to alter your perception. Specializing in the slim, egg roll-shaped burritos of Me","2022–2023, 2025",0
Great China,,,,,-122.26616,37.867756,,,,2022–2026,1
Teni East Kitchen,,,,,-122.25663,37.8278,,,,2022–2026,1
Soba Ichi,,,,,-122.28472,37.81691,,,,2022–2026,1
FOB Kitchen,,,,,-122.2628885,37.837746,,,,2022–2026,1
Orchard City Kitchen,"1875 S. Bascom Ave., Ste. 190, Campbell, CA, 95008, USA","Campbell, CA, USA",$$,"International, Fusion",-121.93434,37.28828,https://guide.michelin.com/en/california/campbell/restaurant/orchard-city-kitchen,Bib Gourmand,"Jeffrey Stout has clearly settled in to his position at the helm of this international gem, packed with a crowd of loyal fans, despite its rather modest shopping-center locale. Polished yet casual wit",2022–2025,0
Jo's Modern Thai,,,,,-122.1988979,37.79179,,,,2022–2026,1
peasants FEAST,,,,,-120.1419776,34.595557,,,,2022–2026,1
Insalata's,,,,,-122.56138,37.97308,,,,2022–2026,1
Los Carnalitos,,,,,-122.0645252,37.6076735,,,,2022–2026,1
Langer's,,,,,-118.27692,34.056217,,,,2022–2026,1
Nari,,,,,-122.4288317,37.7855421,,,,"2022, 2024–2026",1
Taquería El Paisa,"4610 International Blvd., Oakland, 94601, USA","Oakland, USA",$,Mexican,-122.2112574,37.770894,https://guide.michelin.com/en/california/oakland/restaurant/taqueria-el-paisa,Bib Gourmand,"This Oakland institution is widely hailed as the temple of tacos. It is strictly no fuss—no air-conditioning—and no service–order at the counter—but after one bite of their juicy meat, dripping with s",2022–2025,0
Taqueria El Paisa,,,,,-99.1610057,19.4408204,,,,2024–2026,1
Colapasta,,,,,-118.4962761,34.0190328,,,,2022–2026,1
Sociale,"3665 Sacramento St., San Francisco, 94118, USA","San Francisco, USA",$$$$,"Californian, Italian Contemporary",-122.4530438,37.7872221,https://guide.michelin.com/en/california/san-francisco/restaurant/sociale,Bib Gourmand,"Italian in name but Californian in spirit, Sociale is a go-to for comfort fare that blends the best of both worlds. Chef/owner Tia Harrison crafts wonders; creamy burrata over pumpkin purée and melt-i","2022, 2025",0
Horn Barbecue,"2534 Mandela Pkwy., Oakland, 94607, USA","Oakland, USA",$$,Barbecue,-122.288888,37.8204022,https://guide.michelin.com/en/california/oakland/restaurant/horn-barbecue,Bib Gourmand,"This restaurant is temporarily closed.Arrive early to this local sensation from Matt Horn as there is bound to be a wait. It's well worth your time though, as the chef's ""West Coast Barbecue"" complete",2022–2024,0
Horn Barbecue,,,,,-122.274232,37.800423,,,,2025–2026,1
WoodSpoon,"107 W. 9th St., Los Angeles, 90015, United States","Los Angeles, United States",$$,"Brazilian, Regional Cuisine",-118.2551835,34.0417732,https://guide.michelin.com/en/california/us-los-angeles/restaurant/woodspoon,Bib Gourmand,"This kitchen has been serving soul-satisfying food for well over a decade now. Indeed, it's a charming destination that feels like a warm hug with its feminine and welcoming vibe, courtesy of ebullien","2022, 2025",0
Dija Mara,,,,,-117.3775044,33.1936183,,,,2022–2026,1
Yafa,,,,,-121.92013,36.55702,,,,2022–2026,1
Mariscos Jalisco,,,,,-117.7354583,34.0628203,,,,2022–2026,1
Solare,,,,,-117.213925,32.737253,,,,2022–2026,1
Nopalito,,,,,-122.439016,37.773417,,,,2022–2026,1
Pizzana,,,,,-118.46568,34.053474,,,,2022–2026,1
Dha Rae Oak,,,,,-118.309,34.05054,,,,2022–2026,1
Rossoblu,,,,,-118.25355,34.035248,,,,2022–2026,1
Holbox,,,,,-118.27802,34.017384,,,,2022–2026,1
Frank Fat’s,"806 L St., Sacramento, 95814, USA","Sacramento, USA",$$,Chinese,-121.4968009,38.5785995,https://guide.michelin.com/en/california/us-sacramento/restaurant/frank-fat%E2%80%99s,Bib Gourmand,"Celebrated as the “third house” because of its popularity among politicians making deals in the back booths, this venerable Chinese-American jewel has been family owned since 1939. Step inside and you",2022–2025,0
Canon,,,,,-121.4650099,38.5639044,,,,2022–2026,1
Longo Seafood,,,,,-118.1047332,34.0625014,,,,2022–2026,1
Z & Y,,,,,-122.4060049,37.7960493,,,,2022–2026,1
Callie,,,,,-117.1538654,32.7103575,,,,2022–2026,1
Son of a Gun,"8370 W. 3rd St., Los Angeles, 90048, United States","Los Angeles, United States",$$,Seafood,-118.3724711,34.0727791,https://guide.michelin.com/en/california/us-los-angeles/restaurant/son-of-a-gun,Bib Gourmand,"Located among a fashionable string of shops and restaurants, find this bohemian delight for seafood-focused Californian fare. Begin meals with a sample of wonderful small plates, like the shrimp toast",2022–2025,0
Animal,"435 N. Fairfax Ave., Los Angeles, 90036, United States","Los Angeles, United States",$$,"Contemporary, American",-118.3616297,34.0793889,https://guide.michelin.com/en/california/us-los-angeles/restaurant/animal,Bib Gourmand,"Animal may not be the youngest kid on the block, having recently celebrated a decade in operation, but still it remains enviably cool and inviting. Its plain walls, wood furnishings and large windows ","2022, 2025",0
Bee Taqueria,"5754 W. Adams Blvd., Los Angeles, 90016, USA","Los Angeles, USA",$$,Mexican,-118.3689054,34.0323899,https://guide.michelin.com/en/california/us-los-angeles/restaurant/bee-taqueria,Bib Gourmand,Note: This restaurant is temporarily closed.This casual taqueria with serious focus and creative style arrives courtesy of the talented Chef Alex Carrasco (of Scratch Bar and Osteria Mozza fame). Its ,2022–2025,0
La Calenda,"6518 Washington St., Yountville, 94599, United States","Yountville, United States",$$,Mexican,-122.36098,38.401863,https://guide.michelin.com/en/california/yountville/restaurant/la-calenda,Bib Gourmand,"It’s not uncommon for first-timers here to find themselves waiting at this front bar flanked by flat-screen TVs. The rowdy crowd, hustling bartenders, and a packed room may suggest that this is just a",2022–2025,0
Nixtaco,,,,,-121.2564971,38.7297832,,,,2022–2026,1
Jiang Nan Spring,"910 E. Main St., Alhambra, CA, 91801, USA","Alhambra, CA, USA",$$,"Chinese, Shanghainese",-118.117454,34.0995473,https://guide.michelin.com/en/california/alhambra/restaurant/jiang-nan-spring,Bib Gourmand,"Shanghai cuisine does not feature the bold, tongue-numbing sensations of Sichuan food or the rowdy energy of a dim sum house filled with roaming carts. It is its own style and celebrated happily so at",2022–2025,0
Cesarina,,,,,-117.234556,32.7434966,,,,2022–2026,1
Cucina Urbana,,,,,-117.160145,32.7312497,,,,2022–2026,1
Chulita,,,,,-118.4729134,33.9987622,,,,2022–2026,1
Lalibela,,,,,-118.3643785,34.0573578,,,,2022–2026,1
The Factory Kitchen,,,,,-118.23589,34.03912,,,,2022–2026,1
Mian,"301 W. Valley Blvd., Ste. 114, San Gabriel, 91776, United States","San Gabriel, United States",$,"Chinese, Sichuan",-118.104243,34.0800007,https://guide.michelin.com/en/california/san-gabriel/restaurant/mian,Bib Gourmand,"Brace yourself, Angelenos. Tony Xu (of Chengdu Taste fame) has a veritable hit on his hands with this young'un (and its queues attest to that). The menu is dedicated to noodle soups and a smattering o","2022–2023, 2025",0
Range Life,,,,,-121.76999,37.683384,,,,2022–2026,1
Sichuan Home,"5037 Geary Blvd., San Francisco, 94118, USA","San Francisco, USA",$$,"Chinese, Sichuan",-122.4736306,37.7805117,https://guide.michelin.com/en/california/san-francisco/restaurant/sichuan-home,Bib Gourmand,"One of the brightest offerings on Geary Boulevard, Sichuan Home lures diners far and wide. Its spotless dining room is a vision of varnished wood panels and mirrors, with plexiglass-topped tables for ",2022–2025,0
Lunasia Dim Sum House,,,,,-118.13225,34.09258,,,,2022–2026,1
Flores,"2030 Union St., San Francisco, CA, 94123, USA","San Francisco, CA, USA",$$,"Mexican, Regional Cuisine",-122.4326948,37.7975502,https://guide.michelin.com/en/california/san-francisco/restaurant/flores,Bib Gourmand,"It’s always a fiesta at this lively spot on Cow Hollow’s main drag, where you’re as likely to find young families sharing a bowl of guac as you are Marina girls getting tipsy on mezcal margaritas. Pat",2022–2025,0
Flores,,,,,5.8703732,51.8461152,,,,2024–2026,1
Loquita,,,,,-119.6916636,34.4140993,,,,2022–2026,1
Heritage Barbecue,,,,,-117.6628795,33.5014781,,,,2022–2026,1
Moo's Craft Barbecue,,,,,-118.2183724,34.0733517,,,,2022–2026,1
Fable & Spirit,,,,,-117.9286747,33.6180361,,,,2022–2026,1
Ciccio,,,,,-122.36687,38.406544,,,,2022–2026,1
Ramen & Tsukemen TAO,,,,,-118.0279443,33.8097481,,,,2022–2026,1
Amor y Tacos,,,,,-118.0471398,33.8602919,,,,2022–2026,1
Chifa,,,,,-118.2212657,34.1236509,,,,2022–2026,1
FolkTable,"23584 Arnold Dr., Sonoma, 95476, United States","Sonoma, United States",$$,Californian,-122.4578989,38.2277792,https://guide.michelin.com/en/california/sonoma/restaurant/folktable,Bib Gourmand,It’s impossible to miss Cornerstone Sonoma as it's nearly the only building along this otherwise quiet stretch. But housed within this charming outdoor marketplace is a kitchen brimming with ideas. To,2022–2025,0
Spinning Bones,,,,,-122.2456112,37.7612014,,,,2022–2026,1
Khom Loi,,,,,-122.8300766,38.405194,,,,2022–2026,1
Valley,,,,,-122.458829,38.292269,,,,2022–2026,1
Dumpling Home,,,,,-122.4227056,37.7759271,,,,2022–2026,1
Mentone,,,,,-121.8995341,36.9789673,,,,2022–2026,1
Kazan,"111 N. La Cienega Blvd., Beverly Hills, 90211, USA","Beverly Hills, USA",$$,"Japanese, Ramen",-118.376527,34.0676223,https://guide.michelin.com/en/california/beverly-hills/restaurant/kazan-1190724,Selected Restaurants,"Noodle spots may be all the rage, but few prepare such a memorable handmade version of the delicious soba as Chef Ryu Isobe. His brick-lined structure, marked by a bright yellow sign, certainly seems ",2022–2025,0
Chalkboard,"29 North St., Healdsburg, 95448, United States","Healdsburg, United States",$$,American,-122.8715740,38.6119460,https://guide.michelin.com/en/california/healdsburg/restaurant/chalkboard,Bib Gourmand,"Located in the luxury boutique Hotel Les Mars, Chalkboard is a surprisingly laid-back boîte, with a casual vibe and a buzzing bar that offers a refreshing counterpoint to a day of wine tasting. The di","2022–2023, 2025",0
Glen Ellen Star,,,,,-122.5245,38.36429,,,,2022–2026,1
El Molino Central,,,,,-122.481964,38.315018,,,,2022–2026,1
Khan Saab Desi Craft Kitchen,,,,,-117.9192001,33.8700821,,,,2022–2026,1
Manhattan Beach Post,,,,,-118.410934,33.885162,,,,2022–2026,1
Top Hatters Kitchen,,,,,-122.1417697,37.7373393,,,,2022–2026,1
Busarin Cuisine,,,,,98.9972692,18.8006357,,,,2022–2026,1
O Pochana,"252/21 Prasoet Som Road, Soi Wilai Sena, Phra Nakhon Si Ayutthaya, 13110, Thailand","Phra Nakhon Si Ayutthaya, Thailand",$$,Thai,100.4032638,14.3269813,https://guide.michelin.com/en/phra-nakhon-si-syutthaya-region/phra-nakhon-si-ayutthaya/restaurant/o-pochana,Bib Gourmand,"This rickety but charming little wooden house that backs onto the River Noi is the perfect local pitstop. Their Thai menu is prepared in an open kitchen with a charcoal stove, mostly comprising local ",2022–2023,0
Salaloy,"52/2 Wiset Road, Rawai, Mueang Phuket, Phuket, 83000, Thailand","Phuket, Thailand",$$,Seafood,98.3257581,7.7745658,https://guide.michelin.com/en/phuket-region/phuket/restaurant/salaloy,Bib Gourmand,"The focus of this casual Rawai Beach eatery is on fresh, expertly cooked seafood. Among the highlights are shrimp paste dip served with vegetables, and soft-boiled wing shells and deep-fried Sillago f",2022–2024,0
Aunt Aoy Kitchen,"377 2 Chiang Rai Road, Suthep, Chiang Mai, 50200, Thailand","Chiang Mai, Thailand",$,Street Food,98.9776955,18.7887183,https://guide.michelin.com/en/chiang-mai-region/chiang-mai/restaurant/aunt-aoy-kitchen-1202594,Bib Gourmand,"The décor is simple, with a display of photos and messages on post-it notes from customers gone by. Aunt Aoy spent much of her career cooking in hotel kitchens. Her expertise is realised in the fluffy",2022–2023,0
Aunt Aoy Kitchen,,,,,98.964349,18.7952137,,,,2024–2026,1
Pa Pu Boat Noodles,"1/36 Mu 5, Chao Chet, Sena, Phra Nakhon Si Ayutthaya, 13110, Thailand","Phra Nakhon Si Ayutthaya, Thailand",$,Noodles,100.381552,14.3163552,https://guide.michelin.com/en/phra-nakhon-si-syutthaya-region/phra-nakhon-si-ayutthaya/restaurant/pa-pu-boat-noodles,Bib Gourmand,Octogenarian Pa Pu is the talent behind the recipes in this simple shop next to the local rice field. The signature boat noodles with shredded chicken or pork and soft eggs are a delicacy. There’s no ,2022–2024,0
Dan Chicken Rice (San Sai),,,,,99.0332853,18.8218137,,,,2022–2026,1
Som Tum Jinda,,,,,104.8682332,15.233483,,,,2022–2026,1
Som Tum Jinda,,,,,-79.3781648,43.6599343,,,,2024–2026,1
Pae Araya,,,,,105.4998701,15.3191662,,,,2022–2026,1
Pa Lek Boat Noodles,,,,,100.5691202,14.3554715,,,,2022–2026,1
A Pong Mae Sunee,,,,,98.3875385,7.8858698,,,,2022–2026,1
Khanom Bueang Wan Phueng Noi (Chok Chai 4),"Chok Chai 4 Soi 54 Yaek 5, Bangkok, 10230, Thailand","Bangkok, Thailand",$,Street Food,100.60023,13.8160267,https://guide.michelin.com/en/bangkok-region/bangkok/restaurant/khanom-bueang-wan-phueng-noi-chok-chai-4,Bib Gourmand,"This shop is entirely devoted to the delicious dessert known as Khanom Bueang. These crepes are crispy and topped with just the right ratio of aromatic coconut cream, sweet egg floss, and young coconu",2022–2025,0
Roti Chaofa,,,,,98.3805976,7.8782532,,,,2022–2026,1
Takola,"Devasom Khao Lak Beach Resort & Villas, 79 Mu 3, Khuekkhak, Takua Pa, Phang-Nga, 82220, Thailand","Phang-Nga, Thailand",$$,Thai,98.2413889,8.6950787,https://guide.michelin.com/en/th-phang-nga-region/th-phang-nga/restaurant/takola,Bib Gourmand,"Set in lush gardens by Khuekkhak beach, Takola is named after the Takua Pa city’s former title when it was a major spice trading port. Their ancient and original cooking methods produce intense tradit",2022–2025,0
Burapa,"26 Soi Sukhumvit 11, Khlong Toei Nuea, Vadhana, Bangkok, 10110, Thailand","Bangkok, Thailand",$$,Thai,100.5569288,13.7447602,https://guide.michelin.com/en/bangkok-region/bangkok/restaurant/burapa,Bib Gourmand,This Orient Express-themed restaurant aims to take diners on a journey from east to north-east Thailand via flavoursome cooking that joins culinary elements from Isan and the province of Trat. The gro,2022–2025,0
Por. Pochaya,"654-656 Wisut Kasat Road, Ban Phan Thom, Phra Nakhon, Bangkok, 10200, Thailand","Bangkok, Thailand",$,Thai-Chinese,100.5064441,13.7603746,https://guide.michelin.com/en/bangkok-region/bangkok/restaurant/por-pochaya,Bib Gourmand,"For over half a century, unwavering quality and rare dishes have kept loyal fans visiting this traditional Thai-Chinese spot, which is now run by the third generation of the same family. Among the top",2022–2025,0
100 Mahaseth (Si Phraya),"100 Mahaseth Road, Si Phraya, Bangkok, 10500, Thailand","Bangkok, Thailand",$$,Isan,100.5183,13.729049,https://guide.michelin.com/en/bangkok-region/bangkok/restaurant/100-mahaseth,Bib Gourmand,,2022,0
100 Mahaseth (Si Phraya),"100 Mahaseth Road, Si Phraya, Bang Rak, Bangkok, 10500, Thailand","Bangkok, Thailand",$$,Isan,100.52594,13.73211,https://guide.michelin.com/en/bangkok-region/bangkok/restaurant/100-mahaseth,Bib Gourmand,This nose-to-tail inspired offal restaurant serves elevated Isaan fare made from quality ingredients sourced from local Thai farmers. The chef puts great care into balancing flavours and presenting at,2023,0
Krua Kampan,"Route no. 3052, Mu Si, Pak Chong, Nakhon Ratchasima, 30130, Thailand","Nakhon Ratchasima, Thailand",$$,Thai,101.4315403,14.517382,https://guide.michelin.com/en/nakhon-ratchasima-region/nakhon-ratchasima/restaurant/krua-kampan,Bib Gourmand,,2022,0
Lab Somphit,"169 Jant Road, Mueang Nakhon Ratchasima, Nakhon Ratchasima, 30000, Thailand","Nakhon Ratchasima, Thailand",$,Street Food,102.0874393,14.9793517,https://guide.michelin.com/en/nakhon-ratchasima-region/nakhon-ratchasima/restaurant/lab-somphit,Bib Gourmand,Granny Somphit has prepared her food from scratch every day for more than five decades. This is flavourful Isan food at its best – a lovely balance of intense local spices and Thai herbs. The carefull,2022–2023,0
Khaotom Chedi,,,,,100.5915574,14.3543607,,,,2022–2026,1
Ket O Cha,"Soi Phatthanakan 53, Suan Luang, Bangkok, 10250, Thailand","Bangkok, Thailand",$,Street Food,100.6496579,13.7341196,https://guide.michelin.com/en/bangkok-region/bangkok/restaurant/ket-o-cha,Bib Gourmand,"Perennially crowded, this local favourite has a legacy spanning several decades. It specialises in aromatic noodle soup, with a peppery fragrance and mild sweet and salty taste. Diners can choose from",2022–2023,0
Khok Kloi Bami Tom Yam Khai,"6/10 Phet Kasem Road, Khok Kloi, Phang-Nga, 82140, Thailand","Phang-Nga, Thailand",$,Street Food,98.3052386,8.276927,https://guide.michelin.com/en/th-phang-nga-region/th-phang-nga/restaurant/khok-kloi-bami-tom-yam-khai,Bib Gourmand,Their fresh tom yum noodles are accompanied by piquant spicy and sour flavours; dry or in an intense broth. They’re known for impressively sized portions at reasonable prices. The soft minced pork and,2022–2023,0
Kin Lookdeaw,,,,,100.7102141,14.543095,,,,"2022, 2024–2026",1
Kin Lookdeaw,"35 Mu 9 Tambon Tha Chao Sanuk, Tha Ruea, Phra Nakhon Si Ayutthaya, 13130, Thailand","Phra Nakhon Si Ayutthaya, Thailand",$$,Thai,100.724102,14.5593892,https://guide.michelin.com/en/phra-nakhon-si-syutthaya-region/phra-nakhon-si-ayutthaya/restaurant/kin-lookdeaw,Bib Gourmand,"The name of the restaurant asks guests to ‘focus on eating’ (Kin Lookdeaw) at this quaint house with an open-air pavilion above a serene pond. The chefs, veterans in the kitchen, cook simple Thai dish",2023,0
Bangkok Bold Kitchen (Central Embassy),"LGF, Central Embassy, 1031 Phloen Chit Road, Lumphini, Pathum Wan, Bangkok, 10330, Thailand","Bangkok, Thailand",$$,Thai,100.55035,13.74288,https://guide.michelin.com/en/bangkok-region/bangkok/restaurant/bangkok-bold-kitchen-central-embassy,Bib Gourmand,Word-of-mouth inspired Chef Nhoi to take the leap from cooking studio in the old town to opening a restaurant in the city centre. Her aim is to preserve the heritage of Thai taste that’s ‘basic and bo,2022–2023,0
Fried Banana Rama 5,"116 Soi 1, Bang Si Thong, Nonthaburi, 11130, Thailand","Nonthaburi, Thailand",$,Street Food,100.4693957,13.8279642,https://guide.michelin.com/en/nonthaburi-region/nonthaburi/restaurant/fried-banana-rama-5,Bib Gourmand,"Every day, in a small alley in Nonthaburi, a long queue forms for the deep-fried battered banana with its crispy golden-brown texture. A special machine removes the excess oil to ensure the crispy fin",2022–2023,0
Jao Nai Fish Ball (Ekkachai),"38/132 Bang Khae Road, Bang Khae, Bangkok, 10160, Thailand","Bangkok, Thailand",$,Street Food,100.42131,13.697419,https://guide.michelin.com/en/bangkok-region/bangkok/restaurant/jao-nai-fish-ball,Bib Gourmand,"This long-standing Chinatown stall may have moved to the outskirts but its flavoursome fish balls still attract many diners. The old townhouse may not be as well-maintained as you’d wish, but the food",2022–2023,0
Somsak Pu Ob (Charoen Rat),,,,,100.495455,13.7254396,,,,2022–2026,1
Kin Kub Koi,,,,,100.3938304,13.7777516,,,,2022–2026,1
Madam Pahtehh,"103/8 Si Chomchuen Road, Mak Khaeng, Mueang Udon Thani, Udon Thani, 41000, Thailand","Udon Thani, Thailand",$,Vietnamese,102.81411,17.45223,https://guide.michelin.com/en/udon-thani-region/udon-thani/restaurant/madam-pahtehh,Bib Gourmand,,2022,0
Roti Sai Mai Mae Pom - Mother Branch,"51/1 Mu 2, Uthong Road, Ho Rattanachai, Phra Nakhon Si Ayutthaya, 13000, Thailand","Phra Nakhon Si Ayutthaya, Thailand",$,Street Food,100.5804553,14.3534184,https://guide.michelin.com/en/phra-nakhon-si-syutthaya-region/phra-nakhon-si-ayutthaya/restaurant/roti-sai-mai-mae-pom-mother-branch,Bib Gourmand,"Opened in 1985, this spot selling roti with candy floss in a wooden building near Preedee Thamrong Bridge makes tasty made-to-order plain and sesame rotis with cloud-like candy floss. As they don’t ma",2022–2023,0
Joong Borikan,"85 Prasoet Som Road, Sena, Phra Nakhon Si Ayutthaya, 13110, Thailand","Phra Nakhon Si Ayutthaya, Thailand",$$,Thai,100.4033879,14.3269805,https://guide.michelin.com/en/phra-nakhon-si-syutthaya-region/phra-nakhon-si-ayutthaya/restaurant/joong-borikan,Bib Gourmand,There’s a reason why this unpretentious-looking restaurant has been highly regarded among Thailand’s food connoisseurs for over eight decades: it serves appetising local river prawns and fish cooked u,2022–2024,0
Konchong Konprung,"109 Soi Inthamara 3, Sutthisan Road, Bangkok, 10400, Thailand","Bangkok, Thailand",$$$$,Thai-Chinese,100.5529214,13.7889776,https://guide.michelin.com/en/bangkok-region/bangkok/restaurant/konchong-konprung,Bib Gourmand,"The warm and homely décor with vintage Chinese posters and food straight out of the recipe vault of the owner’s family transport you to the good old days of childhood, making this charming little plac","2022–2023, 2025",0
Here Klae Pork Satay,"8/2 Pamaprao Road, Ho Rattanachai, Phra Nakhon Si Ayutthaya, 13000, Thailand","Phra Nakhon Si Ayutthaya, Thailand",$,Street Food,100.5786019,14.3622062,https://guide.michelin.com/en/phra-nakhon-si-syutthaya-region/phra-nakhon-si-ayutthaya/restaurant/here-kae-pork-satay,Bib Gourmand,"Now run by the third-generation grill master, this humble shophouse boasts a history spanning over nine decades and remains one of Ayutthaya’s most cherished spots for charcoal-grilled pork satay. The",2022–2025,0
Maan Muang,,,,,100.6771662,13.7690166,,,,2022–2026,1
Nong Rim Klong,"51 Ekkamai 23 Alley, Khlong Tan Nuea, Bangkok, 10110, Thailand","Bangkok, Thailand",$$,Street Food,100.5886687,13.7413402,https://guide.michelin.com/en/bangkok-region/bangkok/restaurant/nong-rim-klong,Bib Gourmand,"Nong Rim Klong has been reincarnated from a canal-side food stall to a shophouse across two floors. The quality of the fresh seafood, served in generous portions, is the highlight. The scrambled eggs ",2022–2025,0
Khao Soi Mae Sai,"29/1 Ratchaphruek Road, Chang Puek, Chiang Mai, 50300, Thailand","Chiang Mai, Thailand",$,Street Food,98.9752923,18.7996783,https://guide.michelin.com/en/chiang-mai-region/chiang-mai/restaurant/khao-soi-mae-sai,Bib Gourmand,"Believed by many to be the world’s favourite curry, this affordable street stall serves the famous khao soi. Their signature dish hits the spot with intense herbs, rich curry paste and tender braised ",2022–2023,0
Khao Soi Mae Sai,,,,,98.98513,18.804125,,,,2024–2026,1
Nai Ngieb (Phutthamonthon Sai 4),"125/21 Mu 6, Phutthamonthon Sai 4 Road, Salaya, Nakhon Pathom, 73170, Thailand","Nakhon Pathom, Thailand",$,Street Food,100.3280304,13.7844522,https://guide.michelin.com/en/nakhon-pathom-region/nakhon-pathom/restaurant/nai-ngieb-phutthamonthon-sai-4,Bib Gourmand,"One of the best eateries in the area for noodle soup lovers, where the bouncy, MSG-free fish balls are made the traditional way from mackerel, yellowtail amberjack and wolf herring. The tom yum soup s",2022–2023,0
Mook Manee,,,,,98.3285527,7.7756537,,,,2022–2026,1
Roe Dang,,,,,98.2556289,8.5963563,,,,2022–2026,1
Tune In Garden,"139 Mu 3, Pong Yaeng, Mae Rim, Chiang Mai, 50180, Thailand","Chiang Mai, Thailand",$$,Thai,98.8217167,18.8689798,https://guide.michelin.com/en/chiang-mai-region/chiang-mai/restaurant/tune-in-garden,Bib Gourmand,This restaurant is owned by the late National Artist of Thailand and his wife. She cooks delicious homestyle fare drawn from a cookbook she wrote based on her mother-in-law’s recipes. First-timers are,2022–2025,0
Hok Kee Lao,"19 Senarat Road, Bang Nai Si, Takua Pa, Phang-Nga, 82110, Thailand","Phang-Nga, Thailand",$,Thai-Chinese,98.3462373,8.8690419,https://guide.michelin.com/en/th-phang-nga-region/th-phang-nga/restaurant/hok-kee-lao,Bib Gourmand,"For over 40 years, this heritage restaurant has been serving up delicious Thai, Chinese, and Southern flavours. It's an ideal spot for family gatherings, offering a warm and inviting atmosphere. The m",2022–2025,0
Hok Kee Lao,,,,,98.3460627,8.8492454,,,,2026,1
Nai Mong Hoi Thod,"539 Phlapphla Chai Road, Bangkok, Thailand","539 Phlapphla Chai Road, Thailand",$,Street Food,100.5106800,13.7422760,https://guide.michelin.com/en/bangkok-region/bangkok/restaurant/nai-mong-hoi-thod,Bib Gourmand,"Chinatown has some of the best street food in the city, and this is one of its most famous stands. Hoi thod translates as fried oyster, and that is exactly what Mr Mong has been serving for over 30 ye","2022–2023, 2025",0
K. Panich,,,,,100.4983633,13.7520907,,,,2022–2026,1
Polo Fried Chicken (Soi Polo),"137/1-3 Soi Sanamkhli, Bangkok, 10330, Thailand","Bangkok, Thailand",$$,Isan,100.5461304,13.7322377,https://guide.michelin.com/en/bangkok-region/bangkok/restaurant/polo-fried-chicken-soi-polo,Bib Gourmand,"Run by the same family for three generations, this restaurant (actually two outlets in the same alley – one with air conditioning, one without) has been serving up affordable, delicious food for 50-pl",2022–2025,0
Guay Tiew Khua Gai Suanmali (Khlang Hospital Intersection),"266/1 Soi Thewi Worayat, Luang Road, Wat Dhebsirin, Pom Prap Sattru Phai, Bangkok, 10100, Thailand","Bangkok, Thailand",$,Street Food,100.5110699,13.7469812,https://guide.michelin.com/en/bangkok-region/bangkok/restaurant/guay-tiew-kua-gai-suanmali-khlang-hospital-intersection,Bib Gourmand,"Family-owned and managed, this small stall’s hallmark dish is roasted chicken noodles. The noodles have a crispy, non-oily texture and are rich in seasoning aromas. Khao Lao Haeng, the dry option, is ",2022–2023,0
Go-Ang Kaomunkai Pratunam (Pratunam),"960-962 Soi Phetchaburi 30, Makkasan, Ratchathewi, Bangkok, 10400, Thailand","Bangkok, Thailand",$,Street Food,100.541985,13.749545,https://guide.michelin.com/en/bangkok-region/bangkok/restaurant/go-ang-kaomunkai-pratunam-pratunam,Bib Gourmand,This humble chicken and rice stall has drawn a devoted fan base of locals and in-the-know visitors for more than 60 years. The aromatic rice is cooked with chicken oil and perfectly matches the tender,2022–2023,0
Roti Sai Mai Abeedeen-Pranom Sangaroon,,,,,100.5609138,14.3430049,,,,2022–2026,1
Samlor,,,,,100.5155543,13.7302627,,,,2022–2026,1
Krua Khun Nid,,,,,102.7865557,17.426669,,,,2022–2026,1
Huan Soontaree,,,,,98.9937575,18.8310278,,,,2022–2026,1
Khon Kaen Grilled Pork Neck,,,,,102.8362486,16.4348608,,,,2022–2026,1
Leng Yentafo,,,,,102.8359853,16.4349314,,,,2022–2026,1
Penlaos,"56 Mu 17 Thanaratch Road, Mu Si, Pak Chong, Nakhon Ratchasima, 30450, Thailand","Nakhon Ratchasima, Thailand",$$,Isan,101.374091,14.5174051,https://guide.michelin.com/en/nakhon-ratchasima-region/nakhon-ratchasima/restaurant/penlaos,Bib Gourmand,"Penlaos started over a decade ago as a street stall. Today, it’s an altogether different operation offering a quality menu in a building with high ceilings surrounded by lush gardens and views of the ",2022–2023,0
Penlaos,"56 Mu 17, Thanaratch Road, Mu Si, Pak Chong, Nakhon Ratchasima, 30450, Thailand","Nakhon Ratchasima, Thailand",$$,Isan,101.32722,14.62759,https://guide.michelin.com/en/nakhon-ratchasima-region/nakhon-ratchasima/restaurant/penlaos,Bib Gourmand,"Penlaos started over a decade ago as a street stall. Today, it’s an altogether different operation offering a quality menu in a building with high ceilings surrounded by lush gardens and views of the ",2025,0
Krua Suwimol,,,,,102.0562333,14.9594209,,,,2022–2026,1
Indochine,,,,,104.8580126,15.2362088,,,,2022–2026,1
Go Neng (Wichayanon),"77 Wichayanon Road, Chang Moi, Mueang Chiang Mai, Chiang Mai, 50300, Thailand","Chiang Mai, Thailand",$,Street Food,99.0017724,18.7900026,https://guide.michelin.com/en/chiang-mai-region/chiang-mai/restaurant/go-neng-wichayanon,Bib Gourmand,"Go Neng has been serving deep-fried dough sticks for almost four decades. No matter what shape they take – crocodile, dinosaur, dragon or elephant – each one boasts the same puffy perfection and crisp",2022–2025,0
Khanom Chin Pa Son,,,,,98.5328638,8.466571,,,,2022–2026,1
Krua Tonfon,"Krabi 1002 Rural Road, Bo Saen, Phang-Nga, 82180, Thailand","Phang-Nga, Thailand",$$,Southern Thai,98.6225206,8.4780024,https://guide.michelin.com/en/th-phang-nga-region/th-phang-nga/restaurant/krua-tonfon,Bib Gourmand,"The tree in front of this roadside restaurant has grown a lot since this place opened in 1995. All the while, the chef-owner has been cooking flavoursome southern fare. Starting with local ingredients",2022–2023,0
Thien Duong,,,,,100.5360573,13.7270276,,,,2022–2026,1
Phed Phed Bistro,,,,,100.4439937,13.7671054,,,,2022–2026,1
Toh-Daeng by Baan Ar-Jor Museum Home,"GF, Baan Ar-jor, 102 Thep Kasattri Road, Mai Khao, Phuket, 83110, Thailand","Phuket, Thailand",$$,Thai,98.3053099,8.1570668,https://guide.michelin.com/en/phuket-region/phuket/restaurant/toh-daeng-by-baan-ar-jor-museum-home,Bib Gourmand,"The red dining table in the title runs the length of the kitchen wing of a renovated manor house; now a charming hostel and museum, it is a window into Phuket’s past. The site is surrounded by farmlan",2022–2023,0
Gop Phochana,"58/2 Mu 7, Phet Kasem Road, Thai Mueang, Phang-Nga, 82120, Thailand","Phang-Nga, Thailand",$$,Thai,98.2811463,8.3784343,https://guide.michelin.com/en/th-phang-nga-region/th-phang-nga/restaurant/gop-phochana,Bib Gourmand,"Now in its second generation, this popular destination attracts locals and tourists seeking comforting favourites with intense seasoning and spices. The stir-fried shrimp with coconut curry is the del",2022–2024,0
Lung Khajohn Wat Ket,,,,,99.0022428,18.792313,,,,2022–2026,1
Tue Ka Ko Na Prince,,,,,99.0062067,18.7962375,,,,2022–2026,1
Hong Seng Pochana,"280 Mu 2 Chaeng Watthana Road, Nonthaburi, 11120, Thailand","Nonthaburi, Thailand",$$,Thai-Chinese,100.4950129,13.9152321,https://guide.michelin.com/en/nonthaburi-region/nonthaburi/restaurant/hong-seng-pochana,Bib Gourmand,,2022,0
Hong Seng Pochana,"280 Mu 2 Chaeng Watthana Road, Nonthaburi, 11120, Thailand","Nonthaburi, Thailand",$$,Thai-Chinese,100.52533,13.90583,https://guide.michelin.com/en/nonthaburi-region/nonthaburi/restaurant/hong-seng-pochana,Bib Gourmand,"On the Chao Praya by the Rama IV Bridge, this renowned Thai-Chinese spot has been known for reasonably priced flavoursome fare since 1957. Its open-air dining room and wooden terrace set the stage for",2023,0
Na Chantra,"Chantra Khiri Hotel, 49 Mu 3, Ban Pong, Hang Dong, Chiang Mai, 50230, Thailand","Chiang Mai, Thailand",$$,Thai,98.8430037,18.7841219,https://guide.michelin.com/en/chiang-mai-region/chiang-mai/restaurant/na-chantra,Bib Gourmand,"Set up in the hills inside the Chantra Khiri Hotel, Na Chantra offers gorgeous views of the national park and a menu that features central and northern Thai dishes. Vegetables and herbs come from thei","2022, 2024–2025",0
Na Chantra,"Chantra Khiri Hotel, 49 Mu 3, Ban Pong, Chiang Mai, 50230, Thailand","Chiang Mai, Thailand",$$,Thai,98.9692,18.735685,https://guide.michelin.com/en/chiang-mai-region/chiang-mai/restaurant/na-chantra,Bib Gourmand,"Set up in the hills in the Chantra Khiri Hotel, Na Chantra offers gorgeous views of the national park and a menu that features central and northern Thai dishes. Veggies and herbs come from their next-",2023,0
Bokkia Tha Din Daeng,,,,,100.5025722,13.7335857,,,,2022–2026,1
Thai Niyom,,,,,100.549126,13.741953,,,,"2022, 2024–2026",1
Thai Niyom,"Mahatun Plaza, 888/28-29 Phloen Chit Road, Lumphini, Pathum Wan, Bangkok, 10330, Thailand","Bangkok, Thailand",$$,Thai,100.53506,13.73999,https://guide.michelin.com/en/bangkok-region/bangkok/restaurant/thai-niyom,Bib Gourmand,"Hidden in the shadow of skyscrapers is this gem of restaurant, which got its start serving family recipes, but now offers an array of Thai cuisine from Chiang Mai to Hat Yai. It is a great place to sa",2023,0
Kin-Kub-Ei,,,,,98.3334005,7.9801168,,,,2022–2026,1
Weng (Woeng Nakhon Kasem),"140 Yaowarat Road, Chong Nonsi, Bangkok, 10100, Thailand","Bangkok, Thailand",$,Street Food,100.5040071,13.7443796,https://guide.michelin.com/en/bangkok-region/bangkok/restaurant/khao-phad-pu-chang-phueak-woeng-nakhon-kasem,Bib Gourmand,"This push cart on the main drag in Chinatown serves tasty crab fried rice, crab noodles and stir-fried fish maw. Chunks of crab cooked à la minute have a smoky aroma and could put many an upmarket Chi",2022–2023,0
Jok Prince,"1391 Charoen Krung Road, Bang Rak, Bangkok, Thailand","Bang Rak, Thailand",$,Congee,100.5159400,13.7204860,https://guide.michelin.com/en/bangkok-region/bangkok/restaurant/jok-prince,Bib Gourmand,"Congee is the ultimate Asian comfort food, and the place for one of the best bowls around has moved from a little stall in an alley to the next door building. The porridge is topped with minced pork b","2022–2023, 2025",0
Baan Ta Ko Rai,,,,,100.6123698,14.3447966,,,,2022–2026,1
Majchapasuk,,,,,102.7890064,17.455291,,,,2022–2026,1
Tek Heng (Mee Krob Jeen Lee),"326-330 Thoet Thai 18 Alley, Talat Plu, Bangkok, 10600, Thailand","Bangkok, Thailand",$$,Thai-Chinese,100.47727,13.72222,https://guide.michelin.com/en/bangkok-region/bangkok/restaurant/tek-heng-mee-krob-jeen-lee,Bib Gourmand,"History is on the menu at this legendary Thai-Chinese restaurant. Starting out as a floating shop on Klong Bangkok Yai before moving onshore in 1907, it’s now run by 4th generation descendants of the ",2022–2025,0
Lab Nua,"24 Phachauthit Road, Mak Khaeng, Mueang Udon Thani, Udon Thani, 41000, Thailand","Udon Thani, Thailand",$,Isan,102.7984954,17.4175418,https://guide.michelin.com/en/udon-thani-region/udon-thani/restaurant/lab-nua,Bib Gourmand,"‘Lab Nua’ means delicious Isan-style spicy salad and that’s certainly the focus here. Often featuring homemade fermented fish sauce, dishes like spicy seafood salad with Dong Daeng noodles and Isan so","2022–2023, 2025",0
Lab Nua,"24 Phachauthit Road, Mak Khaeng, Mueang Udon Thani, Udon Thani, 41000, Thailand","Udon Thani, Thailand",$,Isan,102.7962697,17.4120391,https://guide.michelin.com/en/udon-thani-region/udon-thani/restaurant/lab-nua,Bib Gourmand,"‘Lab Nua’ means delicious Isan-style spicy salad and that’s certainly the focus here. Often featuring homemade fermented fish sauce, dishes like spicy seafood salad with Dong Daeng noodles and Isan so",2024,0
Han Thueng Chiang Mai,"63/9 Soi Suthep 4, Suthep Road, Chiang Mai, 50200, Thailand","Chiang Mai, Thailand",$$$$,Northern Thai,98.9548711,18.7891215,https://guide.michelin.com/en/chiang-mai-region/chiang-mai/restaurant/han-thueng-chiang-mai,Bib Gourmand,"Occupying a few houses with bamboo gable roofs near Chiang Mai University, this restaurant does not have a sign at the entrance. But locals have been flocking here for its delicious Northern Thai food",2022–2025,0
Rote Yiam Beef Noodle,"164/48 Chang Khlan Road, Chang Klan, Chiang Mai, Thailand","Chang Klan, Thailand",$$$$,Street Food,98.9992155,18.7779031,https://guide.michelin.com/en/chiang-mai-region/chiang-mai/restaurant/rote-yiam-beef-noodle,Bib Gourmand,"For over 30 years, this small shop has prided itself on serving some of the city’s best beef noodles with intensely flavourful broth packed with Chinese herbs and bouncy beef balls made in-house. Non-","2022–2023, 2025",0
Baan Heng,,,,,102.8359528,16.4341513,,,,2022–2026,1
Tumkratoei Sagate,,,,,102.7850221,16.4520331,,,,2022–2026,1
Huen Muan Jai,,,,,98.9756279,18.800108,,,,2022–2026,1
Maadae Slow Fish Kitchen,"88 Thapae Road, Chang Moi, Chiang Mai, 50300, Thailand","Chiang Mai, Thailand",$$,Seafood,99.0008977,18.7880437,https://guide.michelin.com/en/chiang-mai-region/chiang-mai/restaurant/maadae-slow-fish-kitchen,Bib Gourmand,"Supporting the fishermen of Chumphon in the southeast, the chef opened this restaurant to deliver fresh seafood to the north. It’s caught close to the shoreline and transported within a day. The other",2022–2023,0
Sanyod (Sathon-Bang Rak),"89 Soi Charat Wiang, Si Lom, Bang Rak, Bangkok, 10500, Thailand","Bangkok, Thailand",$$,Chinese,100.5176358,13.7188299,https://guide.michelin.com/en/bangkok-region/bangkok/restaurant/sanyod-sathon-bang-rak,Bib Gourmand,"For over 50 years, this tiny noodle stall tucked away in a small alley has served mouth-watering Thai-Cantonese fare to faithful regulars. The modern dining room is pleasantly appointed and located ju",2022–2023,0
Sanguan Sri,"59/1 Witthayu Road, Pathum Wan, Bangkok, Thailand","Pathum Wan, Thailand",$,Thai,100.5475200,13.7418110,https://guide.michelin.com/en/bangkok-region/bangkok/restaurant/sanguan-sri,Bib Gourmand,"Chipped dining plates and rudimentary cutlery are all part of the experience, and anyway, it’s not like the clientele has been coming here since 1970 for the décor. With a prime location near Lumpini ","2022–2023, 2025",0
One Chun,,,,,98.39069,7.88518,,,,2022–2026,1
Chom Chan,,,,,98.3821551,7.9004798,,,,2022–2026,1
Ann Guay Tiew Khua Gai,"419 Luang Road, Wat Dhebsirin, Bangkok, 10100, Thailand","Bangkok, Thailand",$,Street Food,100.51112,13.746662,https://guide.michelin.com/en/bangkok-region/bangkok/restaurant/ann-guay-tiew-kua-gai,Bib Gourmand,"Fried noodles are a ubiquitous street dish, but they’re taken to another level here. Whether ordered crispy with a fried egg or soft with a runny egg, they retain a soft texture on the inside and a cr","2022–2023, 2025",0
Pad Thai Fai Ta Lu (Dinsor Road),"115/5 Dinso Road, Bowon Niwet, Phra Nakhon, Bangkok, 10200, Thailand","Bangkok, Thailand",$,Street Food,100.5022182,13.7579542,https://guide.michelin.com/en/bangkok-region/bangkok/restaurant/eat-pad-thai,Bib Gourmand,The aroma of pork roasting on the wok will have your mouth watering before you even enter this funky eatery from chef Andy Yang. The pork – quality char-grilled pork loin slice – tops savoury Pad Thai,2022–2023,0
Gorjan,,,,,98.3906865,7.8724225,,,,2022–2026,1
Piya Radna,"990-994 Mukkamontri Road, Nai Mueang, Mueang Nakhon Ratchasima, Nakhon Ratchasima, 30000, Thailand","Nakhon Ratchasima, Thailand",$,Noodles,102.0735684,14.974631,https://guide.michelin.com/en/nakhon-ratchasima-region/nakhon-ratchasima/restaurant/piya-radna,Bib Gourmand,"For over 20 years, this simple outlet has been popular with locals. It serves high-quality pad see ew and rad na with either fresh or deep-fried noodles. The delicious rad na is the signature, served ",2022–2024,0
Krua Lawng Khao,,,,,98.9514748,18.9170868,,,,2022–2026,1
Mae Khlong Hua Pla Mo Fai,,,,,100.4216636,13.7546526,,,,2022–2026,1
Arunwan,,,,,100.587971,13.7361551,,,,2022–2026,1
Khanom Ochin,,,,,102.0944203,14.9731715,,,,2022–2026,1
Baan Ton Sai,,,,,100.5516351,14.352996,,,,2022–2026,1
Koa Chun Huad,"Soi Somdet Phrachao Taksin 34 (Kobo), Bukkhalo, Thon Buri, Bangkok, 10600, Thailand","Bangkok, Thailand",$$,Thai-Chinese,100.4851172,13.7036777,https://guide.michelin.com/en/bangkok-region/bangkok/restaurant/koa-chun-huad,Bib Gourmand,"For more than five decades, Koa Chun Huad, with its simple interior, has been attracting throngs of locals on the Thonburi side. Named after the chef-owner who has worked in many a kitchen in Chinatow",2022–2023,0
Roti Pa Day,,,,,98.9958975,18.788065,,,,2022–2026,1
Chang-Wang-Imm,,,,,100.4908793,13.9156915,,,,2022–2026,1
Grim Nguan Noodle,"75/70 Soi Chom Thong 16, Chom Thong Road, Bang Kho, Chom Thong, Bangkok, 10150, Thailand","Bangkok, Thailand",$,Street Food,100.4711462,13.7001591,https://guide.michelin.com/en/bangkok-region/bangkok/restaurant/grim-nguan-noodle,Bib Gourmand,"Opened in 1999, this shop specialises in homemade fish ball noodle soup. The fish balls are bouncy and contain three kinds of fish, the noodles are al dente, and the broth is flavoursome. Don’t miss t",2022–2023,0
Sae Phun,"112 Mahannop Road, Sao Chingcha, Phra Nakhon, Bangkok, 10200, Thailand","Bangkok, Thailand",$,Small eats,100.5001997,13.7534908,https://guide.michelin.com/en/bangkok-region/bangkok/restaurant/sae-phun,Bib Gourmand,"Opened since 1926, it has been relocated. This small shop is now run by the third generation. The owner has been cooking with her grandfather's recipes for many years. The signature dish chicken stew ",2022–2025,0
Nai Mueang,"33/4 Mu 6, Soi Loma, Khuk Khak, Phang-Nga, 82190, Thailand","Phang-Nga, Thailand",$$,Southern Thai,98.2542178,8.6601349,https://guide.michelin.com/en/th-phang-nga-region/th-phang-nga/restaurant/nai-mueang,Bib Gourmand,"The nostalgic bric-a-brac, old tin mining memorabilia, record players and sewing machines exude a quaint retro charm. It’s all about the seafood here, guaranteed to be fresh, vibrant and big on flavou","2022–2023, 2025",0
Sawang Bami Kam Pu (Si Phraya),"264 Si Phraya Road, Maha Pruttaram, Bang Rak, Bangkok, Thailand","Bangkok, Thailand",$,Street Food,100.52532,13.73199,https://guide.michelin.com/en/bangkok-region/bangkok/restaurant/sawang-bami-kam-pu-si-phraya,Bib Gourmand,"This is the place to enjoy top-quality crab noodles in Bangkok. The sweet, succulent giant crab claw flesh is perfectly paired with sticky egg noodles and shrimp dumplings. Be sure to try their famous",2022–2023,0
Ruean Panya,,,,,100.2825077,13.5583532,,,,2022–2026,1
Hia Wan Khao Tom Pla,,,,,100.51952,13.7077875,,,,2022–2026,1
Pae Bronze Pot Porridge 38 Years,"320 Pracha Rat Sai 1 Road, Bangkok, 10800, Thailand","Bangkok, Thailand",$,Street Food,100.5217115,13.8071327,https://guide.michelin.com/en/bangkok-region/bangkok/restaurant/pae-jok-38-years,Bib Gourmand,,2022,0
Pae Bronze Pot Porridge 38 Years,"320 Pracha Rat Sai 1 Road, Bang Sue, Bangkok, 10800, Thailand","Bangkok, Thailand",$,Street Food,100.52599,13.81097,https://guide.michelin.com/en/bangkok-region/bangkok/restaurant/pae-jok-38-years,Bib Gourmand,"38 is actually the founder’s lucky number; the place itself has been around for considerably longer – since 1962 in fact. Three generations on, his family is still serving savoury congee boiled in its",2023,0
Guay Jub Ouan Pochana,"In front of China Town Rama Cinema, 408 Yaowarat Road, Bangkok, Thailand","408 Yaowarat Road, Thailand",$$$$,Street Food,100.5094760,13.7406330,https://guide.michelin.com/en/bangkok-region/bangkok/restaurant/guay-jub-ouan-pochana,Bib Gourmand,"This cart has been serving Guay Jub (rolled rice noodle soup) for over 50 years and there is always a long line. The noodles are tender but chewy, the broth is aromatic and peppery, and the pork belly","2022–2023, 2025",0
Arunee Namnueng,"36/8 Panprao Road, Mak Khaeng, Mueang Udon Thani, Udon Thani, 41000, Thailand","Udon Thani, Thailand",$$,Vietnamese,102.7876492,17.4132628,https://guide.michelin.com/en/udon-thani-region/udon-thani/restaurant/arunee-namnueng,Bib Gourmand,"Established in 1988, this simple Vietnamese eatery is operated by the founder's descendants. It keeps attracting locals with its bright interior and classic recipes. Noteworthy is the Pizza Vietnam, w",2022–2025,0
Here Hai,"112/1 Soi Sukhumvit 63, Khlong Tan Nuea, Vadhana, Bangkok, 10110, Thailand","Bangkok, Thailand",$$,Seafood,100.5863744,13.7302744,https://guide.michelin.com/en/bangkok-region/bangkok/restaurant/here-hai,Bib Gourmand,The two floors at Here Hai are packed with diners every day and it's easy to see why. Good-quality fresh seafood is shipped in directly from Surat Thani and cooked Thai style to showcase bold flavours,2022–2024,0
Kai Yang Rabeab (Khao Suan Kwang),"99 Mittraphap Road, Kham Muang, Khao Suan Kwang, Khon Kaen, 40280, Thailand","Khon Kaen, Thailand",$,Isan,102.8590231,16.8540871,https://guide.michelin.com/en/khon-kaen-region/khon-kaen/restaurant/kai-yang-rabeab-khao-suan-kwang,Bib Gourmand,"Throw a stick in Khon Kaen and you’ll likely hit a street food place serving grilled chicken and Isan dishes. You’d be lucky if you landed on this one. Its secret is tender, juicy chicken from three l",2022–2025,0
Agave,"16/11 Phalorangrit Road, Nai Mueang, Mueang Ubon Ratchathani, Ubon Ratchathani, 34000, Thailand","Ubon Ratchathani, Thailand",$$,Vietnamese,104.8646015,15.2305338,https://guide.michelin.com/en/ubon-ratchathani-province/ubon-ratchathani/restaurant/agave,Bib Gourmand,"The owner, an agave plant enthusiast, has adorned this cosy space with agave plants throughout. Vietnamese home cooking, enhanced with local Isan spices, fills the air, accompanied by instrumental mus",2022–2025,0
Agave,,,,,5.2270065,46.2038395,,,,2025–2026,1
Agave,,,,,104.8738965,15.2322021,,,,2026,1
Mon Phochana,"46/11-12 Mu 1, Petch Kasem Road, Lam Kaen, Phang-Nga, 82210, Thailand","Phang-Nga, Thailand",$$,Southern Thai,98.2565435,8.5936703,https://guide.michelin.com/en/th-phang-nga-region/th-phang-nga/restaurant/mon-phochana,Bib Gourmand,"Ideal for groups, the open-air main dining area nods to the style of an old Thai-Chinese eatery. Mon Phochana is popular with divers after a trip to Koh Similan and offers fresh seafood, plenty of cho",2022–2023,0
Jay Oh,"113 Soi Charat Mueang, Rong Muang, Pathum Wan, Bangkok, 10330, Thailand","Bangkok, Thailand",$$,Thai,100.5225294,13.7424388,https://guide.michelin.com/en/bangkok-region/bangkok/restaurant/jay-oh,Bib Gourmand,"Jay Oh might be known for her Mama Noodles Tom Yum, but her menu contains numerous other top-notch dishes. Many, including her delicious fried tofu with crispy garlic, boiled rice with duck, and signa",2022–2023,0
Krua Luang Ten,,,,,98.2576907,8.7148875,,,,"2022, 2024–2026",1
Krua Luang Ten,"160 Mu 2, Petchkasem Road, Khuk Khak, Phang-Nga, 82190, Thailand","Phang-Nga, Thailand",$,Southern Thai,98.27489,8.74887,https://guide.michelin.com/en/th-phang-nga-region/th-phang-nga/restaurant/krua-luang-ten,Bib Gourmand,"An upgrade from street stall to restaurant endowed them with more space, with wooden dining tables on concrete floors and sand under a tin roof. Ask the staff for the day’s specials, not listed on the",2023,0
Lim Lao Ngow (China Town),"In front of the building no. 299-301, Song Sawat Road, Maha Pruttaram, Samphanthawong, Bangkok, 10100, Thailand","Bangkok, Thailand",$,Street Food,100.510266,13.7374199,https://guide.michelin.com/en/bangkok-region/bangkok/restaurant/lim-lao-ngow-china-town,Bib Gourmand,"After 60 years in business, the family boasts multiple branches, but the original, in Chinatown, is our pick. The bouncy fish ball concept definitely lives up to its name. Made from fresh fish and no ",2022–2023,0
Guay Jub Mr. Jo,,,,,100.5142074,13.7092043,,,,2022–2026,1
Lai Ros (Rama 6),"122 Rama 6 Road, Sam Sen Nai, Bangkok, 10400, Thailand","Bangkok, Thailand",$$$$,Thai,100.53272,13.779651,https://guide.michelin.com/en/bangkok-region/bangkok/restaurant/lai-rot-rama-6,Bib Gourmand,"This small glasshouse is best known for its authentic royal Thai recipes and summer menu, including the carefully prepared Khao Chae or rice soaked in flower-infused water with 6 condiments. The good ","2022–2023, 2025",0
Pae Pochana,"80/1 Rahaeng Market, Rahaeng, Pathum Thani, 12140, Thailand","Pathum Thani, Thailand",$$,Thai-Chinese,100.4199618,14.042044,https://guide.michelin.com/en/pathum-thani-region/pathum-thani/restaurant/pae-pochana,Bib Gourmand,This hidden gem in 100-year-old Rahaeng Market has been serving old-school Thai-Chinese dishes for over 50 years. The menu focuses on quality over quantity and ingredients are mainly sourced from the ,2022–2023,0
Ruan Thai Kung Pao,,,,,100.5119654,14.2006569,,,,2022–2026,1
Peng Duck Noodles,,,,,102.7671631,17.4044283,,,,2022–2026,1
Tung Sui Heng Pochana (Stadium One),"649 Banthat Thong Road, Wang Mai, Pathum Wan, Bangkok, 10330, Thailand","Bangkok, Thailand",$,Street Food,100.5238,13.74684,https://guide.michelin.com/en/bangkok-region/bangkok/restaurant/tung-sui-heng-pochana-stadium-one,Bib Gourmand,"This iconic family-run shop has been packed with locals for more than 50 years. These days, the family’s second generation runs it, but the founder’s talent for cooking dishes like the signature clayp",2022–2023,0
SP Chicken,"9/1 Samlan Road Soi 1, Phra Singh, Chiang Mai, 50200, Thailand","Chiang Mai, Thailand",$$,Street Food,98.981171,18.7876624,https://guide.michelin.com/en/chiang-mai-region/chiang-mai/restaurant/sp-chicken,Bib Gourmand,"The sight of passers-by standing trance-like at the front, mesmerised by the plump birds slowly spinning on their vertical spits, is common at this authentic Isan eatery in Old Town Chiang Mai. Though","2022–2023, 2025",0
Yoong Khao Hom (I'm Park Chula),"Soi Chulalongkorn 9, Charoen Mueang Road, Bangkok, 10330, Thailand","Bangkok, Thailand",$$$$,Southern Thai,100.5241219,13.7402196,https://guide.michelin.com/en/bangkok-region/bangkok/restaurant/yoong-khao-hom-i-m-park-chula,Selected Restaurants,"Yoong Khao Hom brought its authentic southern cuisine from its longstanding stall in Samui to Bangkok in 2017. Interiors playfully reflect a tropical charm, while all the chefs were trained in Samui. ","2022–2023, 2025",0
Kai Yang Saeng Thai,,,,,102.0974843,14.9785233,,,,2022–2026,1
Khanom Jeen Pradok Ban Kru Yod,"628/8 Mittraphap Road, Nai Mueang, Mueang Nakhon Ratchasima, Nakhon Ratchasima, 30000, Thailand","Nakhon Ratchasima, Thailand",$$,Thai,102.0615824,14.960031,https://guide.michelin.com/en/nakhon-ratchasima-region/nakhon-ratchasima/restaurant/khanom-jeen-kru-yod,Bib Gourmand,The former music teacher is an artist of many stripes. Artisanal souvenirs and musical instruments are on display at the entrance of this newly renovated shop. Their signature is a kanom jeen set with,2022–2025,0
Baan Pang Hom,"185 Mittraphap Road, Ban Mai, Mueang Nakhon Ratchasima, Nakhon Ratchasima, 30000, Thailand","Nakhon Ratchasima, Thailand",$$,Thai,102.0083512,14.9454067,https://guide.michelin.com/en/nakhon-ratchasima-region/nakhon-ratchasima/restaurant/baan-pang-hom,Bib Gourmand,"Named after the owner's mother, Ban Pang Hom has served Thai dishes with intense flavours for two decades. The open-air structure, wooden interior and greenery give it a rustic feel. Choose the snakeh",2022–2024,0
Mok,,,,,104.8668296,15.2262786,,,,2022–2026,1
Naam Yoi,,,,,98.4031412,7.9008076,,,,"2022–2023, 2025–2026",1
Naam Yoi,"63/250 Ruam Phattana Road, Ratsada, Mueang Phuket, Phuket, 83000, Thailand","Phuket, Thailand",$$,Southern Thai,98.37997,7.880155,https://guide.michelin.com/en/phuket-region/phuket/restaurant/naam-yoi,Bib Gourmand,"Going from steam-table hole-in-the-wall to a small cook-to-order eatery to a casual, tree-lined, open-air restaurant, Naam Yoi has cemented its identity as a solid family restaurant with a canon of tr",2024,0
View Mun,,,,,104.8149961,15.2194824,,,,2022–2026,1
Pranom Shredded Chicken Noodles,"47/9 The Building In Front of Phanom Yong Temple, Ho Rattanachai, Phra Nakhon Si Ayutthaya, 13000, Thailand","Phra Nakhon Si Ayutthaya, Thailand",$,Street Food,100.552816,14.3621896,https://guide.michelin.com/en/phra-nakhon-si-syutthaya-region/phra-nakhon-si-ayutthaya/restaurant/pranom-shredded-chicken-noodles,Bib Gourmand,"There are condiments on the table, but there’s no need to adjust the flavour of the shredded chicken noodle soup here on Ayutthaya-Ang Thong Road near Wat Phanom Yong. This shop serves only breakfast ",2022–2023,0
Loukjaan by Saneh Jaan,"GF,  Sindhorn Kempinski Hotel Bangkok, 80 Soi Tonson, Lumphini, Pathum Wan, Bangkok, 10330, Thailand","Bangkok, Thailand",$$,Thai,100.5435713,13.7372621,https://guide.michelin.com/en/bangkok-region/bangkok/restaurant/loukjaan-by-saneh-jaan,Bib Gourmand,The spacious yet homely Loukjaan is the elegantly decorated sister restaurant of Saneh Jaan. The open kitchen runs the length of one wall so guests can watch a hearty menu being lovingly prepared as i,2022–2023,0
Sam Chong Seafood,"39/1 Mu 9, Petch Kasem Road, Ka Lai, Phang-Nga, 82130, Thailand","Phang-Nga, Thailand",$$$$,Seafood,98.4190764,8.3051273,https://guide.michelin.com/en/th-phang-nga-region/th-phang-nga/restaurant/sam-chong-seafood,Bib Gourmand,"The restaurant is located on two large rafts near the mouth of Bang Lam river. Most of the customers are locals who appreciate the laid-back atmosphere and panoramic views of the estuary, mangrove for",2022–2025,0
Pathongko Mae Pranee,,,,,98.3672688,7.8810304,,,,2022–2026,1
Krua Kao Kuk,"47/4-5 Phatthana Road, Talat Nuea, Mueang Phuket, Phuket, 83000, Thailand","Phuket, Thailand",$$,Southern Thai,98.3801618,7.8806503,https://guide.michelin.com/en/phuket-region/phuket/restaurant/krua-kao-kuk,Bib Gourmand,"The legacy of the original roadside stall lives on, thanks to the owner's granddaughter. Famous for its boiled rice with fish, this humble restaurant also serves a variety of other home-style dishes t",2022–2025,0
Guay Tiew Mu Rung Rueang Tung,"10/3 Soi Sukhumvit 26, Khlong Tan, Khlong Toei, Bangkok, 10110, Thailand","Bangkok, Thailand",$,Street Food,100.5704868,13.728376,https://guide.michelin.com/en/bangkok-region/bangkok/restaurant/guay-tiew-mu-rung-rueang,Bib Gourmand,"Depending on your appetite, choose between a small or large portion of clear minced pork soup and perfectly flavoured tom yum broth. Each steaming bowl is topped with homemade fish balls and, if you s",2022–2023,0
Watsana Khao Man Gai,"9/275 Phuttha Bucha Road, Bang Mot, Chom Thong, Bangkok, 10150, Thailand","Bangkok, Thailand",$,Small eats,100.4707734,13.6614547,https://guide.michelin.com/en/bangkok-region/bangkok/restaurant/watsana-khao-man-gai,Bib Gourmand,"Despite several moves from its original location, this shophouse has kept its customers so expect queues for its famous chicken rice and the recent addition of noodles. Quality ingredients and consist","2022, 2025",0
Watsana Khao Man Gai,"9/275 Phuttha Bucha Road, Bang Mot, Chom Thong, Bangkok, 10150, Thailand","Bangkok, Thailand",$,Street Food,100.471908,13.6973372,https://guide.michelin.com/en/bangkok-region/bangkok/restaurant/watsana-khao-man-gai,Bib Gourmand,"Despite several moves from its original location, this shophouse has kept its customers so expect queues for its famous chicken rice and the recent addition of noodles. Quality ingredients and consist",2023–2024,0
Sa-at Sawoei (Kanchanapisek Road),"28/131 Moo 9, Kanchanapisek Road, Bang Bon, Bangkok, 10150, Thailand","Bangkok, Thailand",$$$$,Noodles,100.40667,13.67466,https://guide.michelin.com/en/bangkok-region/bangkok/restaurant/sa-at-sawoei-kanchanapisek-road,Bib Gourmand,Come here for fish balls and fish cakes that are soft and bouncy in texture and freshly made using a secret family recipe. Order them with a bowl of noodles in clear Tom Yam style soup or opt for fluf,"2022–2023, 2025",0
Baan Pee Lek,,,,,100.6545778,13.6814034,,,,2022–2026,1
VT Namnueng (Posri),"345/1-3 Posri Road, Makkaeng, Mueang Udon Thani, Udon Thani, 41000, Thailand","Udon Thani, Thailand",$$,Vietnamese,102.7735933,17.4158445,https://guide.michelin.com/en/udon-thani-region/udon-thani/restaurant/vt-namnueng-posri,Bib Gourmand,"This well-known Vietnamese restaurant is especially popular with families, who enjoy the owners’ versions of long-time favourites, the spacious and inviting two-storey dining room, and the on-site sho",2022–2023,0
Krua Jay Sim,,,,,100.2161494,13.7768457,,,,2022–2026,1
Tang Jai Yang,"171 Chan Road, Wat Phraya Krai, Bang Kho Laem, Bangkok, 10120, Thailand","Bangkok, Thailand",$,Street Food,100.5118008,13.7097905,https://guide.michelin.com/en/bangkok-region/bangkok/restaurant/tang-jai-yang,Bib Gourmand,"Tang Jai Yang’s chef started cooking char siu, or Cantonese-style barbecue pork, for family and friends before selling it online. There, it went viral, so he opened this understated place. Since almos",2022–2023,0
Ginger Farm Kitchen,"1 Nimmanhaemin Road, Suthep, Chiang Mai, Thailand","Suthep, Thailand",$$$$,Northern Thai,98.9672664,18.7993196,https://guide.michelin.com/en/chiang-mai-region/chiang-mai/restaurant/ginger-farm-kitchen,Bib Gourmand,"Rustically furnished and dotted by plants, this restaurant’s huge windows bring the outside in. It embraces a farm-to-table concept using organic and seasonal vegetables, along with free-range eggs an","2022–2023, 2025",0
Khun Jaeng Guay Tiew Pak Mor Kao Wang,,,,,102.8365383,16.4248289,,,,2022–2026,1
Chakki,"1/35 Soi Watthanayothin, Rang Nam Road, Bangkok, 10400, Thailand","Bangkok, Thailand",$$$$,Street Food,100.539276,13.762816,https://guide.michelin.com/en/bangkok-region/bangkok/restaurant/chakki,Bib Gourmand,This family-run Cantonese shop has been on Rang Nam Road for 30 years. Chakki’s owner doesn’t believe in menus – everyone is here for their famous deep-fried wontons or deep-fried rice noodles and bee,2022–2025,0
Ta Tuay,"57/10 Mu 5, Soi Ruam Chai 1, Phuket, 83110, Thailand","Phuket, Thailand",$$,Southern Thai,98.29896,8.197292,https://guide.michelin.com/en/phuket-region/phuket/restaurant/ta-tuay,Bib Gourmand,"Located near Sarasin Bridge that links Phuket to the mainland, this friendly neighbourhood shop is made up of two corrugated iron-roofed houses set in a tropical garden with water features. On the men",2022–2025,0
Somtum Khun Kan,"6 Soi Wachiratham Sathit 23, Sukhumvit 101/1 Road, Bang Chak, Phra Khanong, Bangkok, 10260, Thailand","Bangkok, Thailand",$$,"Isan, Thai",100.62123,13.685326,https://guide.michelin.com/en/bangkok-region/bangkok/restaurant/somtum-khun-kan,Bib Gourmand,"Starting from a small shop in Mueang Thong Thani, and then winning a Som Tam (spicy papaya salad) competition in 1999, Khun Kan has earned his reputation through high quality dishes and great flavours",2022–2025,0
Baan Yai Phad Thai,"108 Soi Inthamara 47, Ratchada Phisek, Bangkok, 10400, Thailand","Bangkok, Thailand",$,Street Food,100.570427,13.7853784,https://guide.michelin.com/en/bangkok-region/bangkok/restaurant/baan-yai-phad-thai,Bib Gourmand,"This is one of the best places for Phad Thai – piping hot noodles cooked to perfection, boldly flavoured and with a distinctive smokiness from the charcoal stove. Expect to wait in line. Come with a l",2022–2025,0
Bunloet,"360 Soi Nakhon Sawan 8, Nakhon Sawan Road, Wat Somanas, Pom Prap Sattru Phai, Bangkok, 10100, Thailand","Bangkok, Thailand",$,Street Food,100.5122787,13.7597971,https://guide.michelin.com/en/bangkok-region/bangkok/restaurant/bunloet,Bib Gourmand,"Launched in 1977, this place specialises in egg noodles with grilled pork – the slices of succulent pork rump are marinated for four hours and grilled over charcoal. Other dishes are available; grille",2022–2023,0
Kaeng Pa Loong Sa-Nga,,,,,100.5356793,13.8652189,,,,2022–2026,1
Krua Apsorn (Sam Sen),"503 Sam Sen Road, Wachira Payaban, Dusit, Bangkok, 10300, Thailand","Bangkok, Thailand",$$,Thai,100.50626,13.77411,https://guide.michelin.com/en/bangkok-region/bangkok/restaurant/krua-apsorn-sam-sen,Bib Gourmand,"This family-run stall is inevitably a hit with anyone who eats here, including patrons such as the Thai royal family. The simplicity of the exterior belies the gem of a Thai kitchen hidden inside. Som",2022–2023,0
Jidori Cuisine Ken,"10/12 Soi Sukhumvit 26, Sukhumvit Road, Bangkok, 10110, Thailand","Bangkok, Thailand",$$,Japanese,100.570145,13.728455,https://guide.michelin.com/en/bangkok-region/bangkok/restaurant/jidori-cuisine-ken,Bib Gourmand,"‘Jidori’ means the very best type of chicken and this little yakitori restaurant, hidden down a little alley, has been serving such skewer delicacies for 12 years. Using assorted parts to ensure a var",2022–2025,0
Krua Boonlert Bangpu,"251 Sukhumvit Road, Thai Ban Mai, Samut Prakan, 10280, Thailand","Samut Prakan, Thailand",$$$$,Seafood,100.6210939,13.5423854,https://guide.michelin.com/en/samut-prakan-region/samut-prakan/restaurant/krua-boonlert-bangpu,Selected Restaurants,"Almost as vast as nearby Ancient Siam, this canal-side restaurant has several dining areas, including a wedding-ready dining room, high-ceilinged pavilion and large terrace. The food is mostly central","2022–2023, 2025",0
So Jeng,,,,,102.7356341,16.0577948,,,,2022–2026,1
The House by Ginger,"199 Mun Mueang Road, Si Phum, Mueang Chiang Mai, Chiang Mai, 50200, Thailand","Chiang Mai, Thailand",$$,Thai,98.993192,18.7927304,https://guide.michelin.com/en/chiang-mai-region/chiang-mai/restaurant/the-house-by-ginger,Selected Restaurants,"Open for decades on the edge of the old city, this stylish and quirky spot serves a mixture of Northern Thai classics and those with a more modern twist. Premium ingredients like New Zealand beef are ",2022–2025,0
Praprai,,,,,102.78071,16.47292,,,,2022–2026,1
Jok Guay Jab Tom Sen Bat Queue,,,,,102.8338556,16.4290596,,,,2022–2026,1
Elvis Suki (Soi Yotse),"200/37 Soi Yotse, Phlapphla Chai Road, Wat Thep Sirin, Pom Prap Sattru Phai, Bangkok, 10100, Thailand","Bangkok, Thailand",$,Noodles,100.5144761,13.7489129,https://guide.michelin.com/en/bangkok-region/bangkok/restaurant/elvis-suki-soi-yotse,Bib Gourmand,"The king reigns supreme. Elvis Suki rules over local competition having dished up the same delicious recipes for 30 years. Seafood, beef or pork sukiyaki come in a secret eggy sauce with a smoky aroma",2022–2025,0
Hong Khao Tom Pla,,,,,98.3931984,7.876661,,,,2022–2026,1
Baan Phadthai,"21-23 Soi Charoen Krung 44, Bangkok, 10500, Thailand","Bangkok, Thailand",$$,Thai,100.51544,13.720825,https://guide.michelin.com/en/bangkok-region/bangkok/restaurant/baan-phadthai,Bib Gourmand,"Baan Phadthai was founded on the lofty belief that this favourite street food dish could be elevated to a gourmet meal. The secret to their success, they claim, is a combination of 18 to 20 ingredient","2022–2023, 2025",0
Lay Lao (Ari),"65 Soi Phahon Yothin 7, Phahon Yothin Road, Sam Sen Nai, Phaya Thai, Bangkok, 10400, Thailand","Bangkok, Thailand",$$,Isan,100.54376,13.78172,https://guide.michelin.com/en/bangkok-region/bangkok/restaurant/lay-lao,Bib Gourmand,"Som Tam comes to the beach at this cosy Ari restaurant, where north-eastern style dishes are topped with the freshest seafood. Opened in 2014 by a family from Hua Hin, the place’s owners delight in of",2022–2023,0
Ten Suns,,,,,100.5040623,13.762659,,,,2022–2026,1
Khao Soi Lung Prakit Kad Kom,"53 Suriyawongse Road, Hai Ya, Mueang Chiang Mai, Chiang Mai, 50100, Thailand","Chiang Mai, Thailand",$,Noodles,98.9897055,18.774504,https://guide.michelin.com/en/chiang-mai-region/chiang-mai/restaurant/khao-soi-lung-prakit-kad-kom,Selected Restaurants,"This place has been serving Northern Thai-style curry noodle soup for over 40 years. Their signature dish is Khao Soi with beef, which features a savoury curry broth and soft, eggy noodles. Don’t forg",2022–2025,0
Somyos,"Chok Chai 4 Soi 72, Bangkok, 10230, Thailand","Bangkok, Thailand",$,Street Food,100.5977885,13.8209715,https://guide.michelin.com/en/bangkok-region/bangkok/restaurant/somyos,Bib Gourmand,"For decades this place has been known in street-food packed Chok Chai 4 for its tangy Thai dishes with subtle Chinese influences. It also boasts warm service, friendly prices, and late hours, making i","2022–2023, 2025",0
Somchai Ped Palo (Go Tae) Bang Len,"18/13 Mu 1, Bang Phasi, Nakhon Pathom, 73130, Thailand","Nakhon Pathom, Thailand",$$,Thai-Chinese,100.2201909,14.0108613,https://guide.michelin.com/en/nakhon-pathom-region/nakhon-pathom/restaurant/somchai-ped-palo-go-tae-bang-len,Bib Gourmand,"Go Tae, the owner of this Thai-Chinese restaurant, got his start almost 80 years ago selling stewed duck noodle soup on a boat, before heading to dry land to open this place. Inside the three-storey b",2022–2023,0
Guay Jub Chang Moi Tat Mai,,,,,98.9987035,18.7901443,,,,2022–2026,1
Sanpakoi Kanomjeen,,,,,99.0086633,18.7859078,,,,2022–2026,1
Prasit Pochana,"44/4 Amat Road, Mueang Khon Kaen, Khon Kaen, 40000, Thailand","Khon Kaen, Thailand",$,Isan,102.8333789,16.4343115,https://guide.michelin.com/en/khon-kaen-region/khon-kaen/restaurant/prasit-pochana,Bib Gourmand,The inviting smell of charcoal-grilled sausages wafts from the kitchen at the front of this no-nonsense shophouse restaurant. This family-run business has been serving traditional Isan pork and beef d,2022–2023,0
Plu,,,,,100.536199,13.7219956,,,,2022–2026,1
Mekin Farm,,,,,102.5416364,16.4669702,,,,2022–2026,1
Chai Phochana,"354/1 Soi Samakkhi 36, Samakkhi Road, Ta Sai, Nonthaburi, 11000, Thailand","Nonthaburi, Thailand",$$,Street Food,100.53573,13.881761,https://guide.michelin.com/en/nonthaburi-region/nonthaburi/restaurant/chai-phochana,Bib Gourmand,"Fuss-free food, live seafood in tanks cooked to order and a speedy service have earned Chai Phochana its loyal following. The stir-fried squid comes with a rich, creamy salted egg yolk and spring onio",2022–2023,0
Go Benz,,,,,98.3825498,7.8848536,,,,2022–2026,1
Khao Tom Thanon Di Buk,"185/11 Phang-Nga Road, Talat Yai, Mueang Phuket, Phuket, 83000, Thailand","Phuket, Thailand",$,Noodles and Congee,98.3974071,7.8835728,https://guide.michelin.com/en/phuket-region/phuket/restaurant/khao-tom-thanon-di-buk,Bib Gourmand,"This family-run gem serves comforting classics, from aromatic Khao Tom porridge to a secret-recipe Chinese brown soup with various toppings. Weekend specials include braised pork ribs and chicken with",2022–2024,0
Surf & Turf by Soul Kitchen,,,,,98.3903716,7.8837246,,,,2022–2026,1
Chuan Chim,"37/3 Montri Road, Talat Yai, Mueang Phuket, Phuket, 83000, Thailand","Phuket, Thailand",$$,Thai,98.3927229,7.8829151,https://guide.michelin.com/en/phuket-region/phuket/restaurant/chuan-chim,Bib Gourmand,"One of the oldest food shops in Phuket, now run by the second generation, offers the freshest seafood, all prepared à la minute. The chef's impressive wok skills shine through in every dish, with high",2022–2025,0
Roti Taew Nam,"6 Thep Krasatti Road, Talad Yai, Phuket, 83000, Thailand","Phuket, Thailand",$,Street Food,98.3908847,7.8850067,https://guide.michelin.com/en/phuket-region/phuket/restaurant/roti-taew-nam,Bib Gourmand,"The crispy roti at this communal breakfast spot is made in a huge charcoal pan by a chef who shapes, fries, taps and cuts faster than the eye can see. The coded order numbers equal the ratio of roti t",2022–2023,0
Baan Benjarong Pai (The Crystal SB Ratchapruek),"2F, The Crystal SB Ratchaphruek, 555/9 Mu 1, Ratchapruek Road, Maha Sawat, Nonthaburi, 11130, Thailand","Nonthaburi, Thailand",$$,Thai,100.4482496,13.8093876,https://guide.michelin.com/en/nonthaburi-region/nonthaburi/restaurant/baan-benjarong-pai,Bib Gourmand,"The original Baan Benjarong, in northern town Pai, was set up to champion the region’s cuisine. This Nonthaburi branch opened in 2017. The typically friendly staff all hail from the north and deliver ",2022–2023,0
Mor Mu Dong,"9/4 Mu 3 Soi Pa Lai, Chao Fa Road, Chalong, Mueang Phuket, Phuket, 83130, Thailand","Phuket, Thailand",$$,Southern Thai,98.37198,7.843128,https://guide.michelin.com/en/phuket-region/phuket/restaurant/mor-mu-dong,Bib Gourmand,"Mor Mu Dong takes its name from its owner, Mor, and the Mu Dong Canal, where it is located. Nestled in a mangrove forest, it is housed in a set of rustic pavilions where diners can enjoy seafood and t",2022–2025,0
Charoen Saeng Silom,,,,,100.516869,13.7228038,,,,2022–2026,1
The Local,,,,,100.5635,13.7409221,,,,2022–2026,1
Tu Kab Khao,"8 Phang Nga Road, Phuket, 83000, Thailand","Phuket, Thailand",$$,Southern Thai,98.38796,7.883687,https://guide.michelin.com/en/phuket-region/phuket/restaurant/tu-kab-khao,Bib Gourmand,"Set in a grand Chino-Portuguese building, Tu Kab Khao is an elegant, atmospheric restaurant. Portraits of the Royal Family grace its walls, along with one of the owner’s mother, Khun Linchii, whose re",2022–2025,0
Beer Hima (Prachachuen),"12/21, 99/231 Thetsaban Songkhro Road, Lad Yao, Bangkok, 10900, Thailand","Bangkok, Thailand",$$,Southern Thai,100.54763,13.83997,https://guide.michelin.com/en/bangkok-region/bangkok/restaurant/beer-hima-prachachuen,Bib Gourmand,,2022,0
Beer Hima (Prachachuen),"12/21, 99/231 Thetsaban Songkhro Road, Lad Yao, Chatuchack, Bangkok, 10900, Thailand","Bangkok, Thailand",$$,Southern Thai,100.56461,13.82568,https://guide.michelin.com/en/bangkok-region/bangkok/restaurant/beer-hima-prachachuen,Bib Gourmand,"Despite its quirky name and simple interior, Beer Hima offers so much more. The family’s seafood recipes from Nakhon Si Thammarat province are loaded with flavour. The southern Thai sour curry with gr",2023,0
The Charm Dining Gallery,,,,,98.3861911,7.8864034,,,,2022–2026,1
Khao Soi Mae Manee,"18 Soi Chotana 24, Chotana Road, Chang Puek, Chiang Mai, 50300, Thailand","Chiang Mai, Thailand",$$$$,Street Food,98.9776031,18.8362211,https://guide.michelin.com/en/chiang-mai-region/chiang-mai/restaurant/khao-soi-mae-manee,Bib Gourmand,"This shop has dished up various noodle dishes since 1984, but its namesake Khao Soi is the clear draw. Like the other dishes, the iconic northern Thai dish features quality ingredients and house-made ",2022–2025,0
es.TABLE,"Juan II de Aragón 5, Saragossa, 50009, Spain","Saragossa, Spain",$$,Contemporary,-0.9045708,41.6343965,https://guide.michelin.com/en/aragon/zaragoza/restaurant/es-table,Bib Gourmand,"If you’re already familiar with the elaborate cuisine on offer at the one-Michelin-star Cancook and you’re looking for something a little more affordable, this bistro occupying the same premises as it",2022–2023,0
es.TABLE,"Felipe Sanclemente 7, Saragossa, 50001, Spain","Saragossa, Spain",$$,Contemporary,-0.8821181,41.64984,https://guide.michelin.com/en/aragon/zaragoza/restaurant/es-table,Bib Gourmand,"This restaurant, a short hop from its older sibling Cancook, is located in the heart of the old town and is an interesting option if you are looking to recharge your batteries during your visit to the",2024–2025,0
Napicol,,,,,-0.3232078,39.5269723,,,,2022–2026,1
ConMimo,,,,,-5.5698368,42.5966323,,,,2022–2026,1
Origen,,,,,-1.5339959,42.9090915,,,,2022–2026,1
Origen,,,,,-0.4521044,39.1193545,,,,2025–2026,1
Zunzum Gastrobar,,,,,-9.1241681,38.7120997,,,,2022–2026,1
Iwasaki,,,,,-3.0112357,43.3592755,,,,2022–2026,1
Pementa Rosa,,,,,-8.6888439,43.2166837,,,,2022–2026,1
AL Margen,,,,,-2.9236206,43.2544219,,,,2022–2026,1
Oficio,"Rua Nova da Trindade 11, Lisbon, 1200-301, Portugal","Lisbon, Portugal",$$,Traditional Cuisine,-9.1425152,38.7122215,https://guide.michelin.com/en/lisboa-region/lisboa/restaurant/oficio,Bib Gourmand,"This centrally located restaurant, almost directly opposite the Bairro do Avillez gastronomic complex, defines itself as an ""atypical tasco "", where the concept is to offer contemporary Portuguese cui",2022–2023,0
Bichopalo,,,,,-3.697722,40.442984,,,,2022–2026,1
Xanglot,"Carrer de l'Almirall 14, Valencia, 46003, Spain","Valencia, Spain",$$,Modern Cuisine,-0.372034,39.475912,https://guide.michelin.com/en/comunidad-valenciana/valencia/restaurant/xanglot,Selected Restaurants,"A family-run restaurant along a pedestrian street in the historic centre, just a few metres from the cathedral. In this contemporary yet informal dining space featuring attractive designer detail, it’",2022–2025,0
À Mesa,,,,,-7.6490196,37.1309467,,,,2022–2026,1
Villa de Oro,,,,,-9.18279,43.13108,,,,2022–2026,1
Acebuche,,,,,-6.4176702,38.4236945,,,,2022–2026,1
Acebuche,,,,,-3.4698532,37.9897975,,,,2025–2026,1
La Cosmo,,,,,-4.4180017,36.7205548,,,,2022–2026,1
La Xarxa,,,,,1.2411467,41.1099201,,,,2022–2026,1
Gruta,"Rua De Santa Catarina 447, Porto, 4000-452, Portugal","Porto, Portugal",$,International,-8.6057703,41.1500107,https://guide.michelin.com/en/porto-region/porto/restaurant/gruta,Bib Gourmand,"Gruta’s is one of those of places where you can eat well at a reasonable price. To a backdrop of stylish yet informal decor and a setting in an alleyway just off a shopping street, chef Rafaela Louzad",2022–2025,0
Sisapo,,,,,-3.7004854,40.4319586,,,,2022–2026,1
Rio by Paulo André,,,,,-8.7415259,41.3513451,,,,2022–2026,1
Smoix,"Avenida Jaume el Conqueridor 38, Ciutadella de Menorca, 07760, Spain","Ciutadella de Menorca, Spain",$$,Traditional Cuisine,3.8408278,40.0010755,https://guide.michelin.com/en/islas-baleares/ciutadella-de-menorca/restaurant/smoix,Bib Gourmand,"Situated on the main avenue running through Ciutadella, Smoix is one of those restaurants with a highly personalised feel thanks to its contemporary-industrial interior that pays special homage to the",2022–2023,0
Smoix,,,,,3.867486,40.031179,,,,2025–2026,1
Mirko Carturan Cuiner,"Avenida Pi i Margall 75, Caldes de Montbui, 08140, Spain","Caldes de Montbui, Spain",$$,Modern Cuisine,2.1657336,41.6300201,https://guide.michelin.com/en/catalunya/caldes-de-montbui/restaurant/mirko-carturan-cuiner,Bib Gourmand,"The eponymous restaurant of this Piedmont-born chef features a glass-fronted kitchen, visible as soon as you walk through the door, a contemporary dining room embellished with cookery books, a private",2022–2025,0
Los Fueros,,,,,-2.9230405,43.2596571,,,,2022–2026,1
El Buey,,,,,-0.7974394,38.1067896,,,,2022–2026,1
Asador La Chumbera,"Paraje Los Ventorrillos, Agua Amarga, 04149, Spain","Agua Amarga, Spain",$$,Traditional Cuisine,-1.9261464,36.9451654,https://guide.michelin.com/en/andalucia/agua-amarga/restaurant/asador-la-chumbera,Bib Gourmand,"The best feature of this highly typical whitewashed property is its remote location, which you’ll come to as you leave Agua Amarga on the Carboneras road. The restaurant has two rustic-contemporary di",2022–2024,0
Asador La Chumbera,,,,,-1.9342069,36.9391866,,,,2025–2026,1
Casa el Tio David,,,,,-0.5552538,38.7736552,,,,2022–2026,1
Garbí,,,,,2.0872822,41.6107945,,,,2022–2026,1
Las Termas,,,,,-6.0552439,42.4563607,,,,2022–2026,1
La Bola de Jorge Bosch,,,,,-16.3519798,28.512541,,,,2022–2026,1
Roc´n´Cris,"Carretera de Francia 9, Aubèrt, 25537, Spain","Aubèrt, Spain",$$$$,Fusion,0.7771709,42.7306808,https://guide.michelin.com/en/catalunya/aubert/restaurant/roc%C2%B4n%C2%B4cris,Bib Gourmand,"Located along the main N-230 road in a small village away from the usual tourist bustle in the Val d'Aran. In this relaxed setting, with views of the surrounding mountains from several tables, enjoy d",2022–2025,0
Consolación,,,,,-7.1505648,37.2888245,,,,2022–2026,1
Venta de Ulzama,,,,,-1.6277656,43.0329569,,,,2022–2026,1
El Secreto de Chimiche,,,,,-16.532373,28.132975,,,,2022–2026,1
Cami·Vell,,,,,-0.4376742,39.1472451,,,,2022–2026,1
Muiño,"Ribeira de Mayo, Esteiro, 15240, Spain","Esteiro, Spain",$$$$,Seafood,-8.9775212,42.7920635,https://guide.michelin.com/en/galicia/esteiro/restaurant/muino,Bib Gourmand,"Located in the centre of this small resort next to the main road. Behind the discreet façade you’ll find a spacious public bar full of locals, a simple dining room serving the daily set menu, and two ","2022–2023, 2025",0
La Rebotica,,,,,-1.2236069,41.337964,,,,2022–2026,1
La Rebotica,,,,,-6.4201077,38.4259321,,,,2024–2026,1
El Risco,"Montaña Clara 30, Famara, 35558, Spain","Famara, Spain",$$,"Seafood, Farm to table",-13.5648771,29.1185223,https://guide.michelin.com/en/canarias/famara/restaurant/el-risco,Bib Gourmand,"If you’re looking to eat somewhere special then look no further, as this restaurant occupies the house designed and decorated by the multi-faceted artist César Manrique for his brother. The decor here",2022–2024,0
El Risco,"Chirimoya 13, Famara, 35558, Spain","Famara, Spain",$$,"Seafood, Farm to table",-13.54778,29.114674,https://guide.michelin.com/en/canarias/famara/restaurant/el-risco,Bib Gourmand,"If you’re looking to eat somewhere special then look no further, as this restaurant occupies the house designed and decorated by the multi-faceted artist César Manrique for his brother. The decor here",2025,0
Las Musas,"Barbero 3, Campo de Criptana, 13610, Spain","Campo de Criptana, Spain",$$,Regional Cuisine,-3.1235193,39.4090257,https://guide.michelin.com/en/castilla-la-mancha/campo-de-criptana/restaurant/las-musas,Bib Gourmand,"A safe bet in every sense thanks to the excellent cuisine on offer, enhanced by the impeccable rustic-contemporary ambience and a location right by the legendary giant windmills described in Don Quijo",2022–2025,0
Casa Chesmy,,,,,-4.4894288,41.9063675,,,,2022–2026,1
